[
  {
    "title":"Authorized Installer",
    "address":"Austin, TX 78714, USA",
    "latitude":30.297451,
    "longitude":-97.767017
  },
  {
    "title":"Authorized Installer",
    "address":"Austin, TX 78714, USA",
    "latitude":30.297451,
    "longitude":-97.767017
  },
  {
    "title":"Authorized Installer",
    "address":"Austin, TX 78714, USA",
    "latitude":30.297451,
    "longitude":-97.767017
  },
  {
    "title":"Authorized Installer",
    "address":"Austin, TX 78714, USA",
    "latitude":30.297451,
    "longitude":-97.767017
  },
  {
    "title":"Authorized Installer",
    "address":"Austin, TX 78714, USA",
    "latitude":30.297451,
    "longitude":-97.767017
  },
  {
    "title":"Authorized Installer",
    "address":"Austin, TX 78714, USA",
    "latitude":30.297451,
    "longitude":-97.767017
  },
  {
    "title":"Authorized Installer",
    "address":"Austin, TX 78714, USA",
    "latitude":30.297451,
    "longitude":-97.767017
  },
  {
    "title":"Authorized Installer",
    "address":"Austin, TX 78714, USA",
    "latitude":30.297451,
    "longitude":-97.767017
  },
  {
    "title":"Authorized Installer",
    "address":"Chattanooga, TN 37408, USA",
    "latitude":35.028293,
    "longitude":-85.311037
  },
  {
    "title":"Authorized Installer",
    "address":"Dayton, OH 45409, USA",
    "latitude":39.720697,
    "longitude":-84.19362
  },
  {
    "title":"Authorized Installer",
    "address":"Grand Rapids, MI 49508, USA",
    "latitude":42.868366,
    "longitude":-85.633209
  },
  {
    "title":"Authorized Installer",
    "address":"La Crosse, WI 54603, USA",
    "latitude":43.869735,
    "longitude":-91.279474
  },
  {
    "title":"Authorized Installer",
    "address":"Rockville, MD 20852, USA",
    "latitude":39.05421,
    "longitude":-77.119752
  },
  {
    "title":"Authorized Installer",
    "address":"Montgomery, AL 36117, USA",
    "latitude":32.382258,
    "longitude":-86.19146
  },
  {
    "title":"Authorized Installer",
    "address":"San Diego, CA 92107, USA",
    "latitude":32.740978,
    "longitude":-117.249975
  },
  {
    "title":"Authorized Installer",
    "address":"New Castle, DE 19720, USA",
    "latitude":39.63176,
    "longitude":-75.59753
  },
  {
    "title":"Authorized Installer",
    "address":"Manheim, PA 17545, USA",
    "latitude":40.177815,
    "longitude":-76.43317
  },
  {
    "title":"Authorized Installer",
    "address":"Tacoma, WA 98409, USA",
    "latitude":47.201942,
    "longitude":-122.478024
  },
  {
    "title":"Authorized Installer",
    "address":"Wheat Ridge, CO 80033, USA",
    "latitude":39.777584,
    "longitude":-105.108354
  },
  {
    "title":"Authorized Installer",
    "address":"Azusa, CA 91702, USA",
    "latitude":34.266747,
    "longitude":-117.854587
  },
  {
    "title":"Authorized Installer",
    "address":"Lincoln, NE 68521, USA",
    "latitude":40.854117,
    "longitude":-96.717291
  },
  {
    "title":"Authorized Installer",
    "address":"Uniontown, PA 15401, USA",
    "latitude":39.916922,
    "longitude":-79.762418
  },
  {
    "title":"Authorized Installer",
    "address":"Miami, FL 33156, USA",
    "latitude":25.657996,
    "longitude":-80.287879
  },
  {
    "title":"Authorized Installer",
    "address":"Westerville, OH 43081, USA",
    "latitude":40.101404,
    "longitude":-82.89636
  },
  {
    "title":"Authorized Installer",
    "address":"Racine, WI 53405, USA",
    "latitude":42.733343,
    "longitude":-87.825501
  },
  {
    "title":"Authorized Installer",
    "address":"Littleton, CO 80120, USA",
    "latitude":39.589728,
    "longitude":-105.003146
  },
  {
    "title":"Authorized Installer",
    "address":"Lynchburg, VA 24501, USA",
    "latitude":37.359491,
    "longitude":-79.120983
  },
  {
    "title":"Authorized Installer",
    "address":"Metairie, LA 70001, USA",
    "latitude":29.979734,
    "longitude":-90.163544
  },
  {
    "title":"Authorized Installer",
    "address":"North Augusta, SC 29841, USA",
    "latitude":33.523077,
    "longitude":-81.94257
  },
  {
    "title":"Authorized Installer",
    "address":"Seattle, WA 98188, USA",
    "latitude":47.448931,
    "longitude":-122.282916
  },
  {
    "title":"Authorized Installer",
    "address":"Macon, GA 31210, USA",
    "latitude":32.899986,
    "longitude":-83.741163
  },
  {
    "title":"Authorized Installer",
    "address":"Mount Prospect, IL 60056, USA",
    "latitude":42.064674,
    "longitude":-87.938382
  },
  {
    "title":"Authorized Installer",
    "address":"Sterling, VA 20166, USA",
    "latitude":38.965811,
    "longitude":-77.481669
  },
  {
    "title":"Authorized Installer",
    "address":"Draper, UT 84020, USA",
    "latitude":40.496022,
    "longitude":-111.868783
  },
  {
    "title":"Authorized Installer",
    "address":"Kent, WA 98032, USA",
    "latitude":47.411687,
    "longitude":-122.245159
  },
  {
    "title":"Authorized Installer",
    "address":"San Angelo, TX 76903, USA",
    "latitude":31.484681,
    "longitude":-100.450896
  },
  {
    "title":"Authorized Installer",
    "address":"Monticello, AR 71655, USA",
    "latitude":33.694668,
    "longitude":-91.753882
  },
  {
    "title":"Authorized Installer",
    "address":"Seattle, WA 98133, USA",
    "latitude":47.739303,
    "longitude":-122.343534
  },
  {
    "title":"Authorized Installer",
    "address":"Sumas, WA 98295, USA",
    "latitude":48.968995,
    "longitude":-122.222844
  },
  {
    "title":"Authorized Installer",
    "address":"Bellingham, WA 98229, USA",
    "latitude":48.710928,
    "longitude":-122.402045
  },
  {
    "title":"Authorized Installer",
    "address":"Port Angeles, WA 98362, USA",
    "latitude":47.950659,
    "longitude":-123.345607
  },
  {
    "title":"Authorized Installer",
    "address":"Everett, WA 98204, USA",
    "latitude":47.908825,
    "longitude":-122.268112
  },
  {
    "title":"Authorized Installer",
    "address":"Herriman, UT 84096, USA",
    "latitude":47.897259,
    "longitude":-112.054161
  },
  {
    "title":"Authorized Installer",
    "address":"Spokane, WA 99208, USA",
    "latitude":40.503926,
    "longitude":-117.46448
  },
  {
    "title":"Authorized Installer",
    "address":"Kenmore, WA 98028, USA",
    "latitude":47.746236,
    "longitude":-122.242919
  },
  {
    "title":"Authorized Installer",
    "address":"Kirkland, WA 98033, USA",
    "latitude":47.66883,
    "longitude":-122.192387
  },
  {
    "title":"Authorized Installer",
    "address":"Bremerton, WA 98311, USA",
    "latitude":47.635546,
    "longitude":-122.644782
  },
  {
    "title":"Authorized Installer",
    "address":"Seattle, WA 98134, USA",
    "latitude":47.583863,
    "longitude":-122.340675
  },
  {
    "title":"Authorized Installer",
    "address":"Seattle, WA 98188, USA",
    "latitude":47.448931,
    "longitude":-122.282916
  },
  {
    "title":"Authorized Installer",
    "address":"Seattle, WA 98166, USA",
    "latitude":47.447515,
    "longitude":-122.356724
  },
  {
    "title":"Authorized Installer",
    "address":"Kent, WA 98031, USA",
    "latitude":47.410566,
    "longitude":-122.196621
  },
  {
    "title":"Authorized Installer",
    "address":"Federal Way, WA 98003, USA",
    "latitude":47.316504,
    "longitude":-122.322397
  },
  {
    "title":"Authorized Installer",
    "address":"Federal Way, WA 98003, USA",
    "latitude":47.316504,
    "longitude":-122.322397
  },
  {
    "title":"Authorized Installer",
    "address":"Riverton, NJ 08077, USA",
    "latitude":40.00265,
    "longitude":-74.996854
  },
  {
    "title":"Authorized Installer",
    "address":"Riverton, NJ 08077, USA",
    "latitude":40.00265,
    "longitude":-74.996854
  },
  {
    "title":"Authorized Installer",
    "address":"West Fargo, ND 58078, USA",
    "latitude":46.866729,
    "longitude":-96.95431
  },
  {
    "title":"Authorized Installer",
    "address":"Missoula, MT 59801, USA",
    "latitude":46.850052,
    "longitude":-113.986964
  },
  {
    "title":"Authorized Installer",
    "address":"Pasco, WA 99301, USA",
    "latitude":46.353774,
    "longitude":-118.919766
  },
  {
    "title":"Authorized Installer",
    "address":"Kennewick, WA 99338, USA",
    "latitude":46.149549,
    "longitude":-119.279064
  },
  {
    "title":"Authorized Installer",
    "address":"Billings, MT 59102, USA",
    "latitude":45.788886,
    "longitude":-108.590885
  },
  {
    "title":"Authorized Installer",
    "address":"Billings, MT 59102, USA",
    "latitude":45.788886,
    "longitude":-108.590885
  },
  {
    "title":"Authorized Installer",
    "address":"Haugen, WI 54841, USA",
    "latitude":45.606987,
    "longitude":-91.778604
  },
  {
    "title":"Authorized Installer",
    "address":"Beaverton, OR 97005, USA",
    "latitude":45.492382,
    "longitude":-122.802967
  },
  {
    "title":"Authorized Installer",
    "address":"Saint Cloud, MN 56301, USA",
    "latitude":45.465135,
    "longitude":-94.251555
  },
  {
    "title":"Authorized Installer",
    "address":"Happy Valley, OR 97086, USA",
    "latitude":45.443307,
    "longitude":-122.513435
  },
  {
    "title":"Authorized Installer",
    "address":"Portland, OR 97224, USA",
    "latitude":45.408132,
    "longitude":-122.803384
  },
  {
    "title":"Authorized Installer",
    "address":"Forest Lake, MN 55025, USA",
    "latitude":45.279124,
    "longitude":-92.990531
  },
  {
    "title":"Authorized Installer",
    "address":"Minneapolis, MN 55422, USA",
    "latitude":45.016727,
    "longitude":-93.3364
  },
  {
    "title":"Authorized Installer",
    "address":"Minneapolis, MN 55427, USA",
    "latitude":45.015542,
    "longitude":-93.376798
  },
  {
    "title":"Authorized Installer",
    "address":"Minneapolis, MN 55441, USA",
    "latitude":44.99513,
    "longitude":-93.435221
  },
  {
    "title":"Authorized Installer",
    "address":"Wausau, WI 54401, USA",
    "latitude":44.981001,
    "longitude":-89.719213
  },
  {
    "title":"Authorized Installer",
    "address":"Danube, MN 56230, USA",
    "latitude":44.831234,
    "longitude":-95.080692
  },
  {
    "title":"Authorized Installer",
    "address":"Burnsville, MN 55337, USA",
    "latitude":44.775838,
    "longitude":-93.268421
  },
  {
    "title":"Authorized Installer",
    "address":"Newport, OR 97365, USA",
    "latitude":44.663914,
    "longitude":-123.997384
  },
  {
    "title":"Authorized Installer",
    "address":"Custer, WI 54423, USA",
    "latitude":44.605363,
    "longitude":-89.455309
  },
  {
    "title":"Authorized Installer",
    "address":"Cody, WY 82414, USA",
    "latitude":44.520554,
    "longitude":-109.042743
  },
  {
    "title":"Authorized Installer",
    "address":"Green Bay, WI 54304, USA",
    "latitude":44.486678,
    "longitude":-88.060757
  },
  {
    "title":"Authorized Installer",
    "address":"Spearfish, SD 57783, USA",
    "latitude":44.481587,
    "longitude":-103.93193
  },
  {
    "title":"Authorized Installer",
    "address":"Dundas, MN 55019, USA",
    "latitude":44.400444,
    "longitude":-93.248306
  },
  {
    "title":"Authorized Installer",
    "address":"Eugene, OR 97401, USA",
    "latitude":44.063717,
    "longitude":-123.084706
  },
  {
    "title":"Authorized Installer",
    "address":"Aurora, ON L4G 6W1, Canada",
    "latitude":43.987416,
    "longitude":-79.448062
  },
  {
    "title":"Authorized Installer",
    "address":"Rochester, MN 55904, USA",
    "latitude":43.956249,
    "longitude":-92.420871
  },
  {
    "title":"Authorized Installer",
    "address":"Sheboygan, WI 53083, USA",
    "latitude":43.826268,
    "longitude":-87.756651
  },
  {
    "title":"Authorized Installer",
    "address":"Boise, ID 83704, USA",
    "latitude":43.63209,
    "longitude":-116.2864
  },
  {
    "title":"Authorized Installer",
    "address":"Boise, ID 83705, USA",
    "latitude":43.569855,
    "longitude":-116.22493
  },
  {
    "title":"Authorized Installer",
    "address":"Idaho Falls, ID 83401, USA",
    "latitude":43.554152,
    "longitude":-111.88046
  },
  {
    "title":"Authorized Installer",
    "address":"Idaho Falls, ID 83401, USA",
    "latitude":43.554152,
    "longitude":-111.88046
  },
  {
    "title":"Authorized Installer",
    "address":"Boise, ID 83709, USA",
    "latitude":43.551657,
    "longitude":-116.29879
  },
  {
    "title":"Authorized Installer",
    "address":"Sioux Falls, SD 57105, USA",
    "latitude":43.521619,
    "longitude":-96.722641
  },
  {
    "title":"Authorized Installer",
    "address":"Saginaw, MI 48604, USA",
    "latitude":43.507235,
    "longitude":-83.963843
  },
  {
    "title":"Authorized Installer",
    "address":"Idaho Falls, ID 83406, USA",
    "latitude":43.426585,
    "longitude":-111.904461
  },
  {
    "title":"Authorized Installer",
    "address":"Shelley, ID 83274, USA",
    "latitude":43.355914,
    "longitude":-112.11456
  },
  {
    "title":"Authorized Installer",
    "address":"Brewerton, NY 13029, USA",
    "latitude":43.225277,
    "longitude":-76.166781
  },
  {
    "title":"Authorized Installer",
    "address":"Rochester, NY 14615, USA",
    "latitude":43.200781,
    "longitude":-77.63643
  },
  {
    "title":"Authorized Installer",
    "address":"Cicero, NY 13039, USA",
    "latitude":43.175825,
    "longitude":-76.074
  },
  {
    "title":"Authorized Installer",
    "address":"Syracuse, NY 13212, USA",
    "latitude":43.127097,
    "longitude":-76.103001
  },
  {
    "title":"Authorized Installer",
    "address":"Rochester, NY 14624, USA",
    "latitude":43.120674,
    "longitude":-77.733763
  },
  {
    "title":"Authorized Installer",
    "address":"East Rochester, NY 14445, USA",
    "latitude":43.110712,
    "longitude":-77.490273
  },
  {
    "title":"Authorized Installer",
    "address":"Macedon, NY 14502, USA",
    "latitude":43.096803,
    "longitude":-77.343928
  },
  {
    "title":"Authorized Installer",
    "address":"Oneida, NY 13421, USA",
    "latitude":43.055201,
    "longitude":-75.644084
  },
  {
    "title":"Authorized Installer",
    "address":"Grand Rapids, MI 49525, USA",
    "latitude":43.031496,
    "longitude":-85.581791
  },
  {
    "title":"Authorized Installer",
    "address":"Grand Rapids, MI 49525, USA",
    "latitude":43.031496,
    "longitude":-85.581791
  },
  {
    "title":"Authorized Installer",
    "address":"Madison, WI 53719, USA",
    "latitude":43.028208,
    "longitude":-89.521451
  },
  {
    "title":"Authorized Installer",
    "address":"Waukesha, WI 53188, USA",
    "latitude":43.016546,
    "longitude":-88.294767
  },
  {
    "title":"Authorized Installer",
    "address":"Alcester, SD 57001, USA",
    "latitude":43.001561,
    "longitude":-96.642433
  },
  {
    "title":"Authorized Installer",
    "address":"Pocatello, ID 83202, USA",
    "latitude":42.990406,
    "longitude":-112.433231
  },
  {
    "title":"Authorized Installer",
    "address":"Buffalo, NY 14217, USA",
    "latitude":42.975274,
    "longitude":-78.877895
  },
  {
    "title":"Authorized Installer",
    "address":"Waukesha, WI 53189, USA",
    "latitude":42.948063,
    "longitude":-88.265584
  },
  {
    "title":"Authorized Installer",
    "address":"Buffalo, NY 14204, USA",
    "latitude":42.880109,
    "longitude":-78.863743
  },
  {
    "title":"Authorized Installer",
    "address":"Grand Rapids, MI 49548, USA",
    "latitude":42.864477,
    "longitude":-85.6589
  },
  {
    "title":"Authorized Installer",
    "address":"Holland, MI 49424, USA",
    "latitude":42.856473,
    "longitude":-86.114104
  },
  {
    "title":"Authorized Installer",
    "address":"Schenectady, NY 12304, USA",
    "latitude":42.776538,
    "longitude":-73.906588
  },
  {
    "title":"Authorized Installer",
    "address":"Hamburg, NY 14075, USA",
    "latitude":42.727983,
    "longitude":-78.860912
  },
  {
    "title":"Authorized Installer",
    "address":"Sterling Heights, MI 48312, USA",
    "latitude":42.562608,
    "longitude":-83.003907
  },
  {
    "title":"Authorized Installer",
    "address":"Charter Township of Clinton, MI 48035, USA",
    "latitude":42.557316,
    "longitude":-82.917884
  },
  {
    "title":"Authorized Installer",
    "address":"Troy, MI 48083, USA",
    "latitude":42.549604,
    "longitude":-83.11128
  },
  {
    "title":"Authorized Installer",
    "address":"Warren, MI 48093, USA",
    "latitude":42.519011,
    "longitude":-83.00928
  },
  {
    "title":"Authorized Installer",
    "address":"Brighton, MI 48116, USA",
    "latitude":42.50935,
    "longitude":-83.773024
  },
  {
    "title":"Authorized Installer",
    "address":"Detroit, MI 48238, USA",
    "latitude":42.399702,
    "longitude":-83.138095
  },
  {
    "title":"Authorized Installer",
    "address":"Twin Falls, ID 83301, USA",
    "latitude":42.398605,
    "longitude":-114.561351
  },
  {
    "title":"Authorized Installer",
    "address":"Redford Charter Township, MI 48239, USA",
    "latitude":42.379212,
    "longitude":-83.288059
  },
  {
    "title":"Authorized Installer",
    "address":"Plymouth, MI 48170, USA",
    "latitude":42.378944,
    "longitude":-83.539
  },
  {
    "title":"Authorized Installer",
    "address":"Dearborn Heights, MI 48127, USA",
    "latitude":42.344605,
    "longitude":-83.282709
  },
  {
    "title":"Authorized Installer",
    "address":"Medford, OR 97504, USA",
    "latitude":42.33762,
    "longitude":-122.785503
  },
  {
    "title":"Authorized Installer",
    "address":"Battle Creek, MI 49037, USA",
    "latitude":42.325679,
    "longitude":-85.261899
  },
  {
    "title":"Authorized Installer",
    "address":"Glenview, IL 60026, USA",
    "latitude":42.092172,
    "longitude":-87.820586
  },
  {
    "title":"Authorized Installer",
    "address":"Erie, PA 16509, USA",
    "latitude":42.049417,
    "longitude":-80.042315
  },
  {
    "title":"Authorized Installer",
    "address":"Elgin, IL 60120, USA",
    "latitude":42.035286,
    "longitude":-88.255852
  },
  {
    "title":"Authorized Installer",
    "address":"Elgin, IL 60120, USA",
    "latitude":42.035286,
    "longitude":-88.255852
  },
  {
    "title":"Authorized Installer",
    "address":"Streamwood, IL 60107, USA",
    "latitude":42.029052,
    "longitude":-88.173043
  },
  {
    "title":"Authorized Installer",
    "address":"Elk Grove Village, IL 60007, USA",
    "latitude":42.011362,
    "longitude":-88.002059
  },
  {
    "title":"Authorized Installer",
    "address":"Kingston, NY 12401, USA",
    "latitude":41.951178,
    "longitude":-74.006509
  },
  {
    "title":"Authorized Installer",
    "address":"Chicago, IL 60618, USA",
    "latitude":41.946428,
    "longitude":-87.707409
  },
  {
    "title":"Authorized Installer",
    "address":"Chicago, IL 60618, USA",
    "latitude":41.946428,
    "longitude":-87.707409
  },
  {
    "title":"Authorized Installer",
    "address":"Clinton, IA 52732, USA",
    "latitude":41.879643,
    "longitude":-90.262004
  },
  {
    "title":"Authorized Installer",
    "address":"Villa Park, IL 60181, USA",
    "latitude":41.877089,
    "longitude":-87.977579
  },
  {
    "title":"Authorized Installer",
    "address":"Niles, MI 49120, USA",
    "latitude":41.817791,
    "longitude":-86.21585
  },
  {
    "title":"Authorized Installer",
    "address":"Bridgeview, IL 60455, USA",
    "latitude":41.754789,
    "longitude":-87.810756
  },
  {
    "title":"Authorized Installer",
    "address":"Elkhart, IN 46514, USA",
    "latitude":41.72043,
    "longitude":-85.981534
  },
  {
    "title":"Authorized Installer",
    "address":"Elkhart, IN 46514, USA",
    "latitude":41.72043,
    "longitude":-85.981534
  },
  {
    "title":"Authorized Installer",
    "address":"Logan, UT 84321, USA",
    "latitude":41.713143,
    "longitude":-111.689921
  },
  {
    "title":"Authorized Installer",
    "address":"Logan, UT 84321, USA",
    "latitude":41.713143,
    "longitude":-111.689921
  },
  {
    "title":"Authorized Installer",
    "address":"Mentor, OH 44060, USA",
    "latitude":41.690609,
    "longitude":-81.317936
  },
  {
    "title":"Authorized Installer",
    "address":"Alsip, IL 60803, USA",
    "latitude":41.668543,
    "longitude":-87.727112
  },
  {
    "title":"Authorized Installer",
    "address":"Eastlake, OH 44095, USA",
    "latitude":41.655593,
    "longitude":-81.444379
  },
  {
    "title":"Authorized Installer",
    "address":"South Bend, IN 46613, USA",
    "latitude":41.652985,
    "longitude":-86.269185
  },
  {
    "title":"Authorized Installer",
    "address":"Dolton, IL 60419, USA",
    "latitude":41.630956,
    "longitude":-87.593949
  },
  {
    "title":"Authorized Installer",
    "address":"Urbandale, IA 50322, USA",
    "latitude":41.630492,
    "longitude":-93.733354
  },
  {
    "title":"Authorized Installer",
    "address":"Holland, OH 43528, USA",
    "latitude":41.620939,
    "longitude":-83.751785
  },
  {
    "title":"Authorized Installer",
    "address":"Clive, IA 50325, USA",
    "latitude":41.605662,
    "longitude":-93.807025
  },
  {
    "title":"Authorized Installer",
    "address":"Cleveland, OH 44119, USA",
    "latitude":41.586754,
    "longitude":-81.551415
  },
  {
    "title":"Authorized Installer",
    "address":"Brigham City, UT 84302, USA",
    "latitude":41.522854,
    "longitude":-112.071483
  },
  {
    "title":"Authorized Installer",
    "address":"New Lenox, IL 60451, USA",
    "latitude":41.513291,
    "longitude":-87.962884
  },
  {
    "title":"Authorized Installer",
    "address":"Joliet, IL 60431, USA",
    "latitude":41.511967,
    "longitude":-88.182793
  },
  {
    "title":"Authorized Installer",
    "address":"Davenport, IA 52802, USA",
    "latitude":41.494535,
    "longitude":-90.634631
  },
  {
    "title":"Authorized Installer",
    "address":"Middletown, NY 10940, USA",
    "latitude":41.433475,
    "longitude":-74.476009
  },
  {
    "title":"Authorized Installer",
    "address":"Bedford, OH 44146, USA",
    "latitude":41.378818,
    "longitude":-81.526728
  },
  {
    "title":"Authorized Installer",
    "address":"Ogden, UT 84414, USA",
    "latitude":41.324863,
    "longitude":-111.964173
  },
  {
    "title":"Authorized Installer",
    "address":"Warren, OH 44484, USA",
    "latitude":41.237698,
    "longitude":-80.732529
  },
  {
    "title":"Authorized Installer",
    "address":"Omaha, NE 68117, USA",
    "latitude":41.210122,
    "longitude":-95.999123
  },
  {
    "title":"Authorized Installer",
    "address":"Omaha, NE 68137, USA",
    "latitude":41.203996,
    "longitude":-96.115593
  },
  {
    "title":"Authorized Installer",
    "address":"Omaha, NE 68137, USA",
    "latitude":41.203996,
    "longitude":-96.115593
  },
  {
    "title":"Authorized Installer",
    "address":"Fort Wayne, IN 46825, USA",
    "latitude":41.147476,
    "longitude":-85.116815
  },
  {
    "title":"Authorized Installer",
    "address":"Papillion, NE 68046, USA",
    "latitude":41.131902,
    "longitude":-96.05733
  },
  {
    "title":"Authorized Installer",
    "address":"Syracuse, UT 84075, USA",
    "latitude":41.054192,
    "longitude":-112.119176
  },
  {
    "title":"Authorized Installer",
    "address":"East Stroudsburg, PA 18301, USA",
    "latitude":41.054183,
    "longitude":-75.236238
  },
  {
    "title":"Authorized Installer",
    "address":"West Milton, PA 17886, USA",
    "latitude":41.015819,
    "longitude":-76.874979
  },
  {
    "title":"Authorized Installer",
    "address":"Miller Place, NY 11764, USA",
    "latitude":40.938957,
    "longitude":-72.987392
  },
  {
    "title":"Authorized Installer",
    "address":"Salem, OH 44460, USA",
    "latitude":40.899449,
    "longitude":-80.87652
  },
  {
    "title":"Authorized Installer",
    "address":"Medford, NY 11763, USA",
    "latitude":40.834899,
    "longitude":-72.981488
  },
  {
    "title":"Authorized Installer",
    "address":"Eureka, CA 95501, USA",
    "latitude":40.813477,
    "longitude":-124.146096
  },
  {
    "title":"Authorized Installer",
    "address":"Bohemia, NY 11716, USA",
    "latitude":40.773486,
    "longitude":-73.12906
  },
  {
    "title":"Authorized Installer",
    "address":"Flushing, NY 11354, USA",
    "latitude":40.769902,
    "longitude":-73.827203
  },
  {
    "title":"Authorized Installer",
    "address":"Long Island City, NY 11101, USA",
    "latitude":40.744309,
    "longitude":-73.94186
  },
  {
    "title":"Authorized Installer",
    "address":"Long Island City, NY 11101, USA",
    "latitude":40.744309,
    "longitude":-73.94186
  },
  {
    "title":"Authorized Installer",
    "address":"Woodside, NY 11377, USA",
    "latitude":40.741333,
    "longitude":-73.903649
  },
  {
    "title":"Authorized Installer",
    "address":"Salt Lake City, UT 84115, USA",
    "latitude":40.717735,
    "longitude":-111.898592
  },
  {
    "title":"Authorized Installer",
    "address":"Salt Lake City, UT 84119, USA",
    "latitude":40.709514,
    "longitude":-111.964173
  },
  {
    "title":"Authorized Installer",
    "address":"Lindenhurst, NY 11757, USA",
    "latitude":40.682147,
    "longitude":-73.376764
  },
  {
    "title":"Authorized Installer",
    "address":"Valley Stream, NY 11580, USA",
    "latitude":40.671038,
    "longitude":-73.706594
  },
  {
    "title":"Authorized Installer",
    "address":"Salt Lake City, UT 84107, USA",
    "latitude":40.66207,
    "longitude":-111.886668
  },
  {
    "title":"Authorized Installer",
    "address":"Lynbrook, NY 11563, USA",
    "latitude":40.658942,
    "longitude":-73.674223
  },
  {
    "title":"Authorized Installer",
    "address":"Allentown, PA 18109, USA",
    "latitude":40.639828,
    "longitude":-75.440299
  },
  {
    "title":"Authorized Installer",
    "address":"Staten Island, NY 10302, USA",
    "latitude":40.631157,
    "longitude":-74.138677
  },
  {
    "title":"Authorized Installer",
    "address":"Brooklyn, NY 11219, USA",
    "latitude":40.631075,
    "longitude":-73.997695
  },
  {
    "title":"Authorized Installer",
    "address":"Midvale, UT 84047, USA",
    "latitude":40.611296,
    "longitude":-111.898592
  },
  {
    "title":"Authorized Installer",
    "address":"Brooklyn, NY 11214, USA",
    "latitude":40.604233,
    "longitude":-74.0026
  },
  {
    "title":"Authorized Installer",
    "address":"Brooklyn, NY 11235, USA",
    "latitude":40.586007,
    "longitude":-73.94186
  },
  {
    "title":"Authorized Installer",
    "address":"Heber City, UT 84032, USA",
    "latitude":40.494055,
    "longitude":-111.332197
  },
  {
    "title":"Authorized Installer",
    "address":"Bloomington, IL 61701, USA",
    "latitude":40.477779,
    "longitude":-88.989245
  },
  {
    "title":"Authorized Installer",
    "address":"Ashley, OH 43003, USA",
    "latitude":40.410436,
    "longitude":-82.96091
  },
  {
    "title":"Authorized Installer",
    "address":"Greeley, CO 80634, USA",
    "latitude":40.396264,
    "longitude":-104.7871
  },
  {
    "title":"Authorized Installer",
    "address":"Pleasant Grove, UT 84062, USA",
    "latitude":40.388233,
    "longitude":-111.725694
  },
  {
    "title":"Authorized Installer",
    "address":"Steubenville, OH 43953, USA",
    "latitude":40.372599,
    "longitude":-80.710353
  },
  {
    "title":"Authorized Installer",
    "address":"Orem, UT 84057, USA",
    "latitude":40.315036,
    "longitude":-111.701845
  },
  {
    "title":"Authorized Installer",
    "address":"Martinsburg, PA 16662, USA",
    "latitude":40.3053,
    "longitude":-78.315941
  },
  {
    "title":"Authorized Installer",
    "address":"Berthoud, CO 80513, USA",
    "latitude":40.304818,
    "longitude":-105.102507
  },
  {
    "title":"Authorized Installer",
    "address":"Muncie, IN 47303, USA",
    "latitude":40.26814,
    "longitude":-85.385952
  },
  {
    "title":"Authorized Installer",
    "address":"Harrisburg, PA 17101, USA",
    "latitude":40.258452,
    "longitude":-76.886508
  },
  {
    "title":"Authorized Installer",
    "address":"Lansdale, PA 19446, USA",
    "latitude":40.228495,
    "longitude":-75.306233
  },
  {
    "title":"Authorized Installer",
    "address":"Horsham, PA 19044, USA",
    "latitude":40.182988,
    "longitude":-75.148701
  },
  {
    "title":"Authorized Installer",
    "address":"Mechanicsburg, PA 17055, USA",
    "latitude":40.173251,
    "longitude":-76.998867
  },
  {
    "title":"Authorized Installer",
    "address":"Levittown, PA 19056, USA",
    "latitude":40.155426,
    "longitude":-74.882875
  },
  {
    "title":"Authorized Installer",
    "address":"Danville, IL 61832, USA",
    "latitude":40.131317,
    "longitude":-87.62851
  },
  {
    "title":"Authorized Installer",
    "address":"Urbana, IL 61802, USA",
    "latitude":40.110052,
    "longitude":-88.148657
  },
  {
    "title":"Authorized Installer",
    "address":"Conshohocken, PA 19428, USA",
    "latitude":40.082436,
    "longitude":-75.300401
  },
  {
    "title":"Authorized Installer",
    "address":"Conshohocken, PA 19428, USA",
    "latitude":40.082436,
    "longitude":-75.300401
  },
  {
    "title":"Authorized Installer",
    "address":"Anderson, IN 46013, USA",
    "latitude":40.054507,
    "longitude":-85.674308
  },
  {
    "title":"Authorized Installer",
    "address":"Anderson, IN 46013, USA",
    "latitude":40.054507,
    "longitude":-85.674308
  },
  {
    "title":"Authorized Installer",
    "address":"Noblesville, IN 46060, USA",
    "latitude":40.054245,
    "longitude":-85.950892
  },
  {
    "title":"Authorized Installer",
    "address":"Noblesville, IN 46060, USA",
    "latitude":40.054245,
    "longitude":-85.950892
  },
  {
    "title":"Authorized Installer",
    "address":"Columbus, OH 43214, USA",
    "latitude":40.048048,
    "longitude":-83.025396
  },
  {
    "title":"Authorized Installer",
    "address":"Westfield, IN 46074, USA",
    "latitude":40.02155,
    "longitude":-86.195517
  },
  {
    "title":"Authorized Installer",
    "address":"Broomfield, CO 80020, USA",
    "latitude":39.93892,
    "longitude":-105.067432
  },
  {
    "title":"Authorized Installer",
    "address":"Philadelphia, PA 19142, USA",
    "latitude":39.922691,
    "longitude":-75.230404
  },
  {
    "title":"Authorized Installer",
    "address":"Indianapolis, IN 46250, USA",
    "latitude":39.904342,
    "longitude":-86.063156
  },
  {
    "title":"Authorized Installer",
    "address":"Indianapolis, IN 46256, USA",
    "latitude":39.902953,
    "longitude":-86.022361
  },
  {
    "title":"Authorized Installer",
    "address":"Chadds Ford, PA 19317, USA",
    "latitude":39.848237,
    "longitude":-75.632447
  },
  {
    "title":"Authorized Installer",
    "address":"Indianapolis, IN 46226, USA",
    "latitude":39.842035,
    "longitude":-86.042763
  },
  {
    "title":"Authorized Installer",
    "address":"Brookville, OH 45309, USA",
    "latitude":39.826649,
    "longitude":-84.417267
  },
  {
    "title":"Authorized Installer",
    "address":"Indianapolis, IN 46224, USA",
    "latitude":39.79241,
    "longitude":-86.251413
  },
  {
    "title":"Authorized Installer",
    "address":"Dayton, OH 45405, USA",
    "latitude":39.790945,
    "longitude":-84.21207
  },
  {
    "title":"Authorized Installer",
    "address":"Indianapolis, IN 46241, USA",
    "latitude":39.726016,
    "longitude":-86.266646
  },
  {
    "title":"Authorized Installer",
    "address":"Cameron, MO 64429, USA",
    "latitude":39.718448,
    "longitude":-94.253845
  },
  {
    "title":"Authorized Installer",
    "address":"Denver, CO 80223, USA",
    "latitude":39.700784,
    "longitude":-105.003146
  },
  {
    "title":"Authorized Installer",
    "address":"St. Joseph, MO 64504, USA",
    "latitude":39.692421,
    "longitude":-94.914324
  },
  {
    "title":"Authorized Installer",
    "address":"Denver, CO 80222, USA",
    "latitude":39.669632,
    "longitude":-104.933045
  },
  {
    "title":"Authorized Installer",
    "address":"Aurora, CO 80013, USA",
    "latitude":39.656342,
    "longitude":-104.763762
  },
  {
    "title":"Authorized Installer",
    "address":"Englewood, CO 80110, USA",
    "latitude":39.64879,
    "longitude":-105.014832
  },
  {
    "title":"Authorized Installer",
    "address":"Glenwood Springs, CO 81601, USA",
    "latitude":39.604494,
    "longitude":-107.337579
  },
  {
    "title":"Authorized Installer",
    "address":"Mooresville, IN 46158, USA",
    "latitude":39.574277,
    "longitude":-86.357952
  },
  {
    "title":"Authorized Installer",
    "address":"Mattoon, IL 61938, USA",
    "latitude":39.516342,
    "longitude":-88.362785
  },
  {
    "title":"Authorized Installer",
    "address":"Waterford, OH 45786, USA",
    "latitude":39.494396,
    "longitude":-81.625428
  },
  {
    "title":"Authorized Installer",
    "address":"Reno, NV 89502, USA",
    "latitude":39.483565,
    "longitude":-119.731021
  },
  {
    "title":"Authorized Installer",
    "address":"Lutherville-Timonium, MD 21093, USA",
    "latitude":39.445211,
    "longitude":-76.652823
  },
  {
    "title":"Authorized Installer",
    "address":"Fairmont, WV 26554, USA",
    "latitude":39.439265,
    "longitude":-80.142858
  },
  {
    "title":"Authorized Installer",
    "address":"Castle Rock, CO 80104, USA",
    "latitude":39.294234,
    "longitude":-104.822115
  },
  {
    "title":"Authorized Installer",
    "address":"Cincinnati, OH 45241, USA",
    "latitude":39.279883,
    "longitude":-84.406761
  },
  {
    "title":"Authorized Installer",
    "address":"Clarksburg, WV 26301, USA",
    "latitude":39.278636,
    "longitude":-80.432652
  },
  {
    "title":"Authorized Installer",
    "address":"Leavenworth, KS 66048, USA",
    "latitude":39.275878,
    "longitude":-94.997446
  },
  {
    "title":"Authorized Installer",
    "address":"Parkersburg, WV 26101, USA",
    "latitude":39.232967,
    "longitude":-81.570611
  },
  {
    "title":"Authorized Installer",
    "address":"Grand Junction, CO 81506, USA",
    "latitude":39.159591,
    "longitude":-108.55819
  },
  {
    "title":"Authorized Installer",
    "address":"Laurel, MD 20723, USA",
    "latitude":39.142671,
    "longitude":-76.860565
  },
  {
    "title":"Authorized Installer",
    "address":"Laurel, MD 20707, USA",
    "latitude":39.104369,
    "longitude":-76.883626
  },
  {
    "title":"Authorized Installer",
    "address":"Rockville, MD 20850, USA",
    "latitude":39.083999,
    "longitude":-77.152781
  },
  {
    "title":"Authorized Installer",
    "address":"Grand Junction, CO 81501, USA",
    "latitude":39.075059,
    "longitude":-108.552253
  },
  {
    "title":"Authorized Installer",
    "address":"Grand Junction, CO 81501, USA",
    "latitude":39.075059,
    "longitude":-108.552253
  },
  {
    "title":"Authorized Installer",
    "address":"Newport, KY 41071, USA",
    "latitude":39.071054,
    "longitude":-84.485507
  },
  {
    "title":"Authorized Installer",
    "address":"Kansas City, KS 66106, USA",
    "latitude":39.070437,
    "longitude":-94.696719
  },
  {
    "title":"Authorized Installer",
    "address":"Leesburg, VA 20175, USA",
    "latitude":39.048857,
    "longitude":-77.584866
  },
  {
    "title":"Authorized Installer",
    "address":"Lanham, MD 20706, USA",
    "latitude":38.962731,
    "longitude":-76.854799
  },
  {
    "title":"Authorized Installer",
    "address":"Arlington, VA 22206, USA",
    "latitude":38.838246,
    "longitude":-77.093858
  },
  {
    "title":"Authorized Installer",
    "address":"Portsmouth, OH 45662, USA",
    "latitude":38.794732,
    "longitude":-82.928643
  },
  {
    "title":"Authorized Installer",
    "address":"Earth City, MO 63045, USA",
    "latitude":38.769918,
    "longitude":-90.46675
  },
  {
    "title":"Authorized Installer",
    "address":"Lewes, DE 19958, USA",
    "latitude":38.763816,
    "longitude":-75.177885
  },
  {
    "title":"Authorized Installer",
    "address":"O'Fallon, MO 63368, USA",
    "latitude":38.745053,
    "longitude":-90.724773
  },
  {
    "title":"Authorized Installer",
    "address":"St. Louis, MO 63114, USA",
    "latitude":38.704882,
    "longitude":-90.346597
  },
  {
    "title":"Authorized Installer",
    "address":"Citrus Heights, CA 95610, USA",
    "latitude":38.697745,
    "longitude":-121.274081
  },
  {
    "title":"Authorized Installer",
    "address":"St. Louis, MO 63132, USA",
    "latitude":38.678581,
    "longitude":-90.379544
  },
  {
    "title":"Authorized Installer",
    "address":"St. Louis, MO 63132, USA",
    "latitude":38.678581,
    "longitude":-90.379544
  },
  {
    "title":"Authorized Installer",
    "address":"Lorton, VA 22079, USA",
    "latitude":38.667912,
    "longitude":-77.206024
  },
  {
    "title":"Authorized Installer",
    "address":"Sacramento, CA 95841, USA",
    "latitude":38.661458,
    "longitude":-121.348445
  },
  {
    "title":"Authorized Installer",
    "address":"Sacramento, CA 95821, USA",
    "latitude":38.625857,
    "longitude":-121.388467
  },
  {
    "title":"Authorized Installer",
    "address":"Sacramento, CA 95825, USA",
    "latitude":38.589082,
    "longitude":-121.408473
  },
  {
    "title":"Authorized Installer",
    "address":"Sacramento, CA 95818, USA",
    "latitude":38.560306,
    "longitude":-121.497029
  },
  {
    "title":"Authorized Installer",
    "address":"Russellville, MO 65074, USA",
    "latitude":38.479856,
    "longitude":-92.480199
  },
  {
    "title":"Authorized Installer",
    "address":"Pueblo, CO 81007, USA",
    "latitude":38.358852,
    "longitude":-104.775431
  },
  {
    "title":"Authorized Installer",
    "address":"Rohnert Park, CA 94928, USA",
    "latitude":38.343782,
    "longitude":-122.701195
  },
  {
    "title":"Authorized Installer",
    "address":"Huntingburg, IN 47542, USA",
    "latitude":38.29846,
    "longitude":-86.962409
  },
  {
    "title":"Authorized Installer",
    "address":"Louisville, KY 40223, USA",
    "latitude":38.258618,
    "longitude":-85.545769
  },
  {
    "title":"Authorized Installer",
    "address":"Fairfield, CA 94533, USA",
    "latitude":38.249363,
    "longitude":-122.039997
  },
  {
    "title":"Authorized Installer",
    "address":"Louisville, KY 40213, USA",
    "latitude":38.180451,
    "longitude":-85.710244
  },
  {
    "title":"Authorized Installer",
    "address":"Louisville, KY 40219, USA",
    "latitude":38.14223,
    "longitude":-85.674308
  },
  {
    "title":"Authorized Installer",
    "address":"Vallejo, CA 94590, USA",
    "latitude":38.105245,
    "longitude":-122.248373
  },
  {
    "title":"Authorized Installer",
    "address":"Louisville, KY 40272, USA",
    "latitude":38.085548,
    "longitude":-85.858859
  },
  {
    "title":"Authorized Installer",
    "address":"Lexington, KY 40505, USA",
    "latitude":38.05414,
    "longitude":-84.454021
  },
  {
    "title":"Authorized Installer",
    "address":"Lexington, KY 40505, USA",
    "latitude":38.05414,
    "longitude":-84.454021
  },
  {
    "title":"Authorized Installer",
    "address":"San Rafael, CA 94901, USA",
    "latitude":37.965063,
    "longitude":-122.503327
  },
  {
    "title":"Authorized Installer",
    "address":"Evansville, IN 47715, USA",
    "latitude":37.961954,
    "longitude":-87.470303
  },
  {
    "title":"Authorized Installer",
    "address":"Evansville, IN 47713, USA",
    "latitude":37.958432,
    "longitude":-87.554418
  },
  {
    "title":"Authorized Installer",
    "address":"Nicholasville, KY 40356, USA",
    "latitude":37.895573,
    "longitude":-84.564147
  },
  {
    "title":"Authorized Installer",
    "address":"El Dorado, KS 67042, USA",
    "latitude":37.825168,
    "longitude":-96.792235
  },
  {
    "title":"Authorized Installer",
    "address":"Owensboro, KY 42303, USA",
    "latitude":37.750555,
    "longitude":-87.042439
  },
  {
    "title":"Authorized Installer",
    "address":"Owensboro, KY 42303, USA",
    "latitude":37.750555,
    "longitude":-87.042439
  },
  {
    "title":"Authorized Installer",
    "address":"Modesto, CA 95356, USA",
    "latitude":37.720868,
    "longitude":-121.022042
  },
  {
    "title":"Authorized Installer",
    "address":"Elizabethtown, KY 42701, USA",
    "latitude":37.703005,
    "longitude":-85.86472
  },
  {
    "title":"Authorized Installer",
    "address":"Hayward, CA 94541, USA",
    "latitude":37.673724,
    "longitude":-122.100787
  },
  {
    "title":"Authorized Installer",
    "address":"Hayward, CA 94541, USA",
    "latitude":37.673724,
    "longitude":-122.100787
  },
  {
    "title":"Authorized Installer",
    "address":"Wichita, KS 67217, USA",
    "latitude":37.611052,
    "longitude":-97.36246
  },
  {
    "title":"Authorized Installer",
    "address":"Mechanicsville, VA 23111, USA",
    "latitude":37.603297,
    "longitude":-77.263504
  },
  {
    "title":"Authorized Installer",
    "address":"Richmond, VA 23226, USA",
    "latitude":37.573557,
    "longitude":-77.521813
  },
  {
    "title":"Authorized Installer",
    "address":"Richmond, VA 23226, USA",
    "latitude":37.573557,
    "longitude":-77.521813
  },
  {
    "title":"Authorized Installer",
    "address":"Turlock, CA 95382, USA",
    "latitude":37.535947,
    "longitude":-120.861378
  },
  {
    "title":"Authorized Installer",
    "address":"Richmond, VA 23235, USA",
    "latitude":37.521339,
    "longitude":-77.573405
  },
  {
    "title":"Authorized Installer",
    "address":"Fredericktown, MO 63645, USA",
    "latitude":37.51033,
    "longitude":-90.337189
  },
  {
    "title":"Authorized Installer",
    "address":"Elizabethtown, KY 42701, USA",
    "latitude":37.756364,
    "longitude":-85.908761
  },
  {
    "title":"Authorized Installer",
    "address":"Santa Clara, CA 95051, USA",
    "latitude":37.359828,
    "longitude":-121.981435
  },
  {
    "title":"Authorized Installer",
    "address":"Princeton, WV 24740, USA",
    "latitude":37.321252,
    "longitude":-81.053385
  },
  {
    "title":"Authorized Installer",
    "address":"San Jose, CA 95125, USA",
    "latitude":37.290981,
    "longitude":-121.890414
  },
  {
    "title":"Authorized Installer",
    "address":"Roanoke, VA 24017, USA",
    "latitude":37.289308,
    "longitude":-79.997592
  },
  {
    "title":"Authorized Installer",
    "address":"St. George, UT 84770, USA",
    "latitude":37.196337,
    "longitude":-113.596658
  },
  {
    "title":"Authorized Installer",
    "address":"Springfield, MO 65802, USA",
    "latitude":37.195389,
    "longitude":-93.389289
  },
  {
    "title":"Authorized Installer",
    "address":"Joplin, MO 64801, USA",
    "latitude":37.103425,
    "longitude":-94.541814
  },
  {
    "title":"Authorized Installer",
    "address":"St. George, UT 84790, USA",
    "latitude":37.044196,
    "longitude":-113.549041
  },
  {
    "title":"Authorized Installer",
    "address":"Cedar Bluff, VA 24609, USA",
    "latitude":36.9955,
    "longitude":-81.844293
  },
  {
    "title":"Authorized Installer",
    "address":"Ozark, MO 65721, USA",
    "latitude":36.975643,
    "longitude":-93.198053
  },
  {
    "title":"Authorized Installer",
    "address":"Benton, KY 42025, USA",
    "latitude":36.813804,
    "longitude":-88.362785
  },
  {
    "title":"Authorized Installer",
    "address":"Chesapeake, VA 23320, USA",
    "latitude":36.757801,
    "longitude":-76.213147
  },
  {
    "title":"Authorized Installer",
    "address":"Kerman, CA 93630, USA",
    "latitude":36.705799,
    "longitude":-120.112735
  },
  {
    "title":"Authorized Installer",
    "address":"Chesapeake, VA 23323, USA",
    "latitude":36.66706,
    "longitude":-76.43317
  },
  {
    "title":"Authorized Installer",
    "address":"Kingsport, TN 37664, USA",
    "latitude":36.534535,
    "longitude":-82.486105
  },
  {
    "title":"Authorized Installer",
    "address":"Kingsport, TN 37664, USA",
    "latitude":36.534535,
    "longitude":-82.486105
  },
  {
    "title":"Authorized Installer",
    "address":"Clarksville, TN 37040, USA",
    "latitude":36.47228,
    "longitude":-87.36122
  },
  {
    "title":"Authorized Installer",
    "address":"Enid, OK 73703, USA",
    "latitude":36.453311,
    "longitude":-97.937495
  },
  {
    "title":"Authorized Installer",
    "address":"Bentonville, AR 72712, USA",
    "latitude":36.384017,
    "longitude":-94.212834
  },
  {
    "title":"Authorized Installer",
    "address":"Jonesborough, TN 37659, USA",
    "latitude":36.309187,
    "longitude":-82.496933
  },
  {
    "title":"Authorized Installer",
    "address":"Cookeville, TN 38501, USA",
    "latitude":36.245267,
    "longitude":-85.540621
  },
  {
    "title":"Authorized Installer",
    "address":"Afton, TN 37616, USA",
    "latitude":36.228764,
    "longitude":-82.767074
  },
  {
    "title":"Authorized Installer",
    "address":"Harrison, AR 72601, USA",
    "latitude":36.180783,
    "longitude":-93.05762
  },
  {
    "title":"Authorized Installer",
    "address":"Harrison, AR 72601, USA",
    "latitude":36.180783,
    "longitude":-93.05762
  },
  {
    "title":"Authorized Installer",
    "address":"Springdale, AR 72764, USA",
    "latitude":36.173137,
    "longitude":-94.049108
  },
  {
    "title":"Authorized Installer",
    "address":"Las Vegas, NV 89102, USA",
    "latitude":36.146267,
    "longitude":-115.182987
  },
  {
    "title":"Authorized Installer",
    "address":"Las Vegas, NV 89102, USA",
    "latitude":36.146267,
    "longitude":-115.182987
  },
  {
    "title":"Authorized Installer",
    "address":"Las Vegas, NV 89109, USA",
    "latitude":36.128561,
    "longitude":-115.17113
  },
  {
    "title":"Authorized Installer",
    "address":"Las Vegas, NV 89121, USA",
    "latitude":36.116549,
    "longitude":-115.088115
  },
  {
    "title":"Authorized Installer",
    "address":"Tulsa, OK 74105, USA",
    "latitude":36.103638,
    "longitude":-95.972683
  },
  {
    "title":"Authorized Installer",
    "address":"Tulsa, OK 74145, USA",
    "latitude":36.102661,
    "longitude":-95.882875
  },
  {
    "title":"Authorized Installer",
    "address":"Tulsa, OK 74145, USA",
    "latitude":36.102661,
    "longitude":-95.882875
  },
  {
    "title":"Authorized Installer",
    "address":"Tulsa, OK 74145, USA",
    "latitude":36.102661,
    "longitude":-95.882875
  },
  {
    "title":"Authorized Installer",
    "address":"Clinton, TN 37716, USA",
    "latitude":36.099565,
    "longitude":-84.164616
  },
  {
    "title":"Authorized Installer",
    "address":"Las Vegas, NV 89118, USA",
    "latitude":36.080967,
    "longitude":-115.224485
  },
  {
    "title":"Authorized Installer",
    "address":"Tulsa, OK 74136, USA",
    "latitude":36.061355,
    "longitude":-95.95154
  },
  {
    "title":"Authorized Installer",
    "address":"Graham, NC 27253, USA",
    "latitude":35.937104,
    "longitude":-79.312754
  },
  {
    "title":"Authorized Installer",
    "address":"High Point, NC 27263, USA",
    "latitude":35.915421,
    "longitude":-79.930463
  },
  {
    "title":"Authorized Installer",
    "address":"Franklin, TN 37067, USA",
    "latitude":35.904655,
    "longitude":-86.771802
  },
  {
    "title":"Authorized Installer",
    "address":"Raleigh, NC 27616, USA",
    "latitude":35.877441,
    "longitude":-78.554728
  },
  {
    "title":"Authorized Installer",
    "address":"Knoxville, TN 37922, USA",
    "latitude":35.868138,
    "longitude":-84.090725
  },
  {
    "title":"Authorized Installer",
    "address":"Knoxville, TN 37922, USA",
    "latitude":35.868138,
    "longitude":-84.090725
  },
  {
    "title":"Authorized Installer",
    "address":"Jonesboro, AR 72404, USA",
    "latitude":35.803708,
    "longitude":-90.772297
  },
  {
    "title":"Authorized Installer",
    "address":"Raleigh, NC 27610, USA",
    "latitude":35.748243,
    "longitude":-78.554728
  },
  {
    "title":"Authorized Installer",
    "address":"Raleigh, NC 27603, USA",
    "latitude":35.663113,
    "longitude":-78.679584
  },
  {
    "title":"Authorized Installer",
    "address":"Columbia, TN 38401, USA",
    "latitude":35.660327,
    "longitude":-87.022444
  },
  {
    "title":"Authorized Installer",
    "address":"Edmond, OK 73013, USA",
    "latitude":35.62644,
    "longitude":-97.513895
  },
  {
    "title":"Authorized Installer",
    "address":"Oklahoma City, OK 73132, USA",
    "latitude":35.558773,
    "longitude":-97.638537
  },
  {
    "title":"Authorized Installer",
    "address":"Oklahoma City, OK 73127, USA",
    "latitude":35.481198,
    "longitude":-97.660236
  },
  {
    "title":"Authorized Installer",
    "address":"Oklahoma City, OK 73128, USA",
    "latitude":35.448521,
    "longitude":-97.660236
  },
  {
    "title":"Authorized Installer",
    "address":"Oklahoma City, OK 73149, USA",
    "latitude":35.383107,
    "longitude":-97.486828
  },
  {
    "title":"Authorized Installer",
    "address":"Fort Smith, AR 72901, USA",
    "latitude":35.370461,
    "longitude":-94.413065
  },
  {
    "title":"Authorized Installer",
    "address":"Norman, OK 73069, USA",
    "latitude":35.258596,
    "longitude":-97.470593
  },
  {
    "title":"Authorized Installer",
    "address":"Charlotte, NC 28206, USA",
    "latitude":35.255716,
    "longitude":-80.826706
  },
  {
    "title":"Authorized Installer",
    "address":"Memphis, TN 38133, USA",
    "latitude":35.209186,
    "longitude":-89.798977
  },
  {
    "title":"Authorized Installer",
    "address":"Memphis, TN 38134, USA",
    "latitude":35.192793,
    "longitude":-89.86922
  },
  {
    "title":"Authorized Installer",
    "address":"Memphis, TN 38134, USA",
    "latitude":35.192793,
    "longitude":-89.86922
  },
  {
    "title":"Authorized Installer",
    "address":"Amarillo, TX 79109, USA",
    "latitude":35.163387,
    "longitude":-101.900579
  },
  {
    "title":"Authorized Installer",
    "address":"Albuquerque, NM 87109, USA",
    "latitude":35.159007,
    "longitude":-106.576086
  },
  {
    "title":"Authorized Installer",
    "address":"Memphis, TN 38103, USA",
    "latitude":35.154363,
    "longitude":-90.060664
  },
  {
    "title":"Authorized Installer",
    "address":"Albuquerque, NM 87107, USA",
    "latitude":35.133861,
    "longitude":-106.64092
  },
  {
    "title":"Authorized Installer",
    "address":"Albuquerque, NM 87107, USA",
    "latitude":35.133861,
    "longitude":-106.64092
  },
  {
    "title":"Authorized Installer",
    "address":"Albuquerque, NM 87107, USA",
    "latitude":35.133861,
    "longitude":-106.64092
  },
  {
    "title":"Authorized Installer",
    "address":"New Bern, NC 28562, USA",
    "latitude":35.121796,
    "longitude":-77.171523
  },
  {
    "title":"Authorized Installer",
    "address":"Albuquerque, NM 87104, USA",
    "latitude":35.10297,
    "longitude":-106.670396
  },
  {
    "title":"Authorized Installer",
    "address":"Conway, AR 72032, USA",
    "latitude":35.08197,
    "longitude":-92.36162
  },
  {
    "title":"Authorized Installer",
    "address":"Albuquerque, NM 87108, USA",
    "latitude":35.073407,
    "longitude":-106.576086
  },
  {
    "title":"Authorized Installer",
    "address":"Austin, AR 72007, USA",
    "latitude":35.011428,
    "longitude":-91.997941
  },
  {
    "title":"Authorized Installer",
    "address":"Spartanburg, SC 29303, USA",
    "latitude":34.980353,
    "longitude":-81.94257
  },
  {
    "title":"Authorized Installer",
    "address":"Fort Mill, SC 29707, USA",
    "latitude":34.967837,
    "longitude":-80.843315
  },
  {
    "title":"Authorized Installer",
    "address":"Sherwood, AR 72120, USA",
    "latitude":34.918834,
    "longitude":-92.253193
  },
  {
    "title":"Authorized Installer",
    "address":"Greer, SC 29651, USA",
    "latitude":34.854265,
    "longitude":-82.193115
  },
  {
    "title":"Authorized Installer",
    "address":"Jacksonville, NC 28546, USA",
    "latitude":34.842582,
    "longitude":-77.40134
  },
  {
    "title":"Authorized Installer",
    "address":"Ada, OK 74820, USA",
    "latitude":34.810139,
    "longitude":-96.706591
  },
  {
    "title":"Authorized Installer",
    "address":"Greenville, SC 29607, USA",
    "latitude":34.80839,
    "longitude":-82.334337
  },
  {
    "title":"Authorized Installer",
    "address":"North Little Rock, AR 72117, USA",
    "latitude":34.777697,
    "longitude":-92.125385
  },
  {
    "title":"Authorized Installer",
    "address":"Huntsville, AL 35806, USA",
    "latitude":34.762429,
    "longitude":-86.691322
  },
  {
    "title":"Authorized Installer",
    "address":"Little Rock, AR 72211, USA",
    "latitude":34.744691,
    "longitude":-92.415931
  },
  {
    "title":"Authorized Installer",
    "address":"Madison, AL 35758, USA",
    "latitude":34.709111,
    "longitude":-86.761749
  },
  {
    "title":"Authorized Installer",
    "address":"Madison, AL 35758, USA",
    "latitude":34.709111,
    "longitude":-86.761749
  },
  {
    "title":"Authorized Installer",
    "address":"Anderson, SC 29625, USA",
    "latitude":34.583875,
    "longitude":-82.799419
  },
  {
    "title":"Authorized Installer",
    "address":"Cleveland, GA 30528, USA",
    "latitude":34.568577,
    "longitude":-83.719914
  },
  {
    "title":"Authorized Installer",
    "address":"Clovis, NM 88101, USA",
    "latitude":34.526545,
    "longitude":-103.31253
  },
  {
    "title":"Authorized Installer",
    "address":"Prescott, AZ 86303, USA",
    "latitude":34.452501,
    "longitude":-112.452988
  },
  {
    "title":"Authorized Installer",
    "address":"Jasper, GA 30143, USA",
    "latitude":34.428552,
    "longitude":-84.480261
  },
  {
    "title":"Authorized Installer",
    "address":"Wilmington, NC 28411, USA",
    "latitude":34.313471,
    "longitude":-77.768095
  },
  {
    "title":"Authorized Installer",
    "address":"Franklin Springs, GA 30639, USA",
    "latitude":34.28602,
    "longitude":-83.1594
  },
  {
    "title":"Authorized Installer",
    "address":"Chatsworth, CA 91311, USA",
    "latitude":34.271038,
    "longitude":-118.61481
  },
  {
    "title":"Authorized Installer",
    "address":"Wilmington, NC 28405, USA",
    "latitude":34.242622,
    "longitude":-77.825292
  },
  {
    "title":"Authorized Installer",
    "address":"Wilmington, NC 28405, USA",
    "latitude":34.242622,
    "longitude":-77.825292
  },
  {
    "title":"Authorized Installer",
    "address":"Northridge, CA 91324, USA",
    "latitude":34.241394,
    "longitude":-118.550616
  },
  {
    "title":"Authorized Installer",
    "address":"Cumming, GA 30041, USA",
    "latitude":34.200083,
    "longitude":-84.090725
  },
  {
    "title":"Authorized Installer",
    "address":"Ardmore, OK 73401, USA",
    "latitude":34.168116,
    "longitude":-97.135938
  },
  {
    "title":"Authorized Installer",
    "address":"Greenwood, SC 29646, USA",
    "latitude":34.146579,
    "longitude":-82.149605
  },
  {
    "title":"Authorized Installer",
    "address":"Glendale, CA 91204, USA",
    "latitude":34.137766,
    "longitude":-118.261433
  },
  {
    "title":"Authorized Installer",
    "address":"Woodstock, GA 30189, USA",
    "latitude":34.133692,
    "longitude":-84.574624
  },
  {
    "title":"Authorized Installer",
    "address":"Covina, CA 91723, USA",
    "latitude":34.08703,
    "longitude":-117.886817
  },
  {
    "title":"Authorized Installer",
    "address":"Roswell, GA 30076, USA",
    "latitude":34.056701,
    "longitude":-84.343688
  },
  {
    "title":"Authorized Installer",
    "address":"Los Angeles, CA 90035, USA",
    "latitude":34.050751,
    "longitude":-118.384178
  },
  {
    "title":"Authorized Installer",
    "address":"Los Angeles, CA 90019, USA",
    "latitude":34.048928,
    "longitude":-118.340351
  },
  {
    "title":"Authorized Installer",
    "address":"Montebello, CA 90640, USA",
    "latitude":34.014909,
    "longitude":-118.106416
  },
  {
    "title":"Authorized Installer",
    "address":"Lawrenceville, GA 30043, USA",
    "latitude":33.996318,
    "longitude":-84.006166
  },
  {
    "title":"Authorized Installer",
    "address":"Lexington, SC 29071, USA",
    "latitude":33.98,
    "longitude":-81.24
  },
  {
    "title":"Authorized Installer",
    "address":"Lawrenceville, GA 30046, USA",
    "latitude":33.950857,
    "longitude":-83.985008
  },
  {
    "title":"Authorized Installer",
    "address":"Marietta, GA 30060, USA",
    "latitude":33.948815,
    "longitude":-84.537945
  },
  {
    "title":"Authorized Installer",
    "address":"Santa Fe Springs, CA 90670, USA",
    "latitude":33.94148,
    "longitude":-118.071298
  },
  {
    "title":"Authorized Installer",
    "address":"Santa Fe Springs, CA 90670, USA",
    "latitude":33.94148,
    "longitude":-118.071298
  },
  {
    "title":"Authorized Installer",
    "address":"Santa Fe Springs, CA 90670, USA",
    "latitude":33.94148,
    "longitude":-118.071298
  },
  {
    "title":"Authorized Installer",
    "address":"Lawrenceville, GA 30044, USA",
    "latitude":33.932733,
    "longitude":-84.069596
  },
  {
    "title":"Authorized Installer",
    "address":"La Habra, CA 90631, USA",
    "latitude":33.922662,
    "longitude":-117.960047
  },
  {
    "title":"Authorized Installer",
    "address":"Wichita Falls, TX 76301, USA",
    "latitude":33.900037,
    "longitude":-98.478759
  },
  {
    "title":"Authorized Installer",
    "address":"Atlanta, GA 30341, USA",
    "latitude":33.899205,
    "longitude":-84.301602
  },
  {
    "title":"Authorized Installer",
    "address":"Bellflower, CA 90706, USA",
    "latitude":33.882239,
    "longitude":-118.123972
  },
  {
    "title":"Authorized Installer",
    "address":"Compton, CA 90220, USA",
    "latitude":33.880354,
    "longitude":-118.235119
  },
  {
    "title":"Authorized Installer",
    "address":"Fullerton, CA 92832, USA",
    "latitude":33.873304,
    "longitude":-117.930758
  },
  {
    "title":"Authorized Installer",
    "address":"Sumter, SC 29150, USA",
    "latitude":33.852666,
    "longitude":-80.354729
  },
  {
    "title":"Authorized Installer",
    "address":"Sumter, SC 29150, USA",
    "latitude":33.852666,
    "longitude":-80.354729
  },
  {
    "title":"Authorized Installer",
    "address":"Buena Park, CA 90620, USA",
    "latitude":33.842872,
    "longitude":-118.012753
  },
  {
    "title":"Authorized Installer",
    "address":"Anaheim, CA 92805, USA",
    "latitude":33.827605,
    "longitude":-117.907324
  },
  {
    "title":"Authorized Installer",
    "address":"Orange, CA 92867, USA",
    "latitude":33.818639,
    "longitude":-117.828212
  },
  {
    "title":"Authorized Installer",
    "address":"Perris, CA 92571, USA",
    "latitude":33.815677,
    "longitude":-117.208817
  },
  {
    "title":"Authorized Installer",
    "address":"Signal Hill, CA 90755, USA",
    "latitude":33.802022,
    "longitude":-118.167854
  },
  {
    "title":"Authorized Installer",
    "address":"San Jacinto, CA 92582, USA",
    "latitude":33.798188,
    "longitude":-117.020559
  },
  {
    "title":"Authorized Installer",
    "address":"Westminster, CA 92683, USA",
    "latitude":33.753154,
    "longitude":-118.001042
  },
  {
    "title":"Authorized Installer",
    "address":"Westminster, CA 92683, USA",
    "latitude":33.753154,
    "longitude":-118.001042
  },
  {
    "title":"Authorized Installer",
    "address":"Atlanta, GA 30316, USA",
    "latitude":33.723039,
    "longitude":-84.343688
  },
  {
    "title":"Authorized Installer",
    "address":"Huntington Beach, CA 92647, USA",
    "latitude":33.722267,
    "longitude":-118.001042
  },
  {
    "title":"Authorized Installer",
    "address":"Myrtle Beach, SC 29577, USA",
    "latitude":33.707041,
    "longitude":-78.894874
  },
  {
    "title":"Authorized Installer",
    "address":"Anniston, AL 36201, USA",
    "latitude":33.661982,
    "longitude":-85.910009
  },
  {
    "title":"Authorized Installer",
    "address":"Costa Mesa, CA 92627, USA",
    "latitude":33.649625,
    "longitude":-117.919042
  },
  {
    "title":"Authorized Installer",
    "address":"Fairburn, GA 30213, USA",
    "latitude":33.614812,
    "longitude":-84.668835
  },
  {
    "title":"Authorized Installer",
    "address":"Laguna Hills, CA 92653, USA",
    "latitude":33.590277,
    "longitude":-117.696282
  },
  {
    "title":"Authorized Installer",
    "address":"Union City, GA 30291, USA",
    "latitude":33.575401,
    "longitude":-84.532704
  },
  {
    "title":"Authorized Installer",
    "address":"Carrollton, GA 30116, USA",
    "latitude":33.539387,
    "longitude":-85.002554
  },
  {
    "title":"Authorized Installer",
    "address":"Glendale, AZ 85301, USA",
    "latitude":33.534925,
    "longitude":-112.184751
  },
  {
    "title":"Authorized Installer",
    "address":"Phoenix, AZ 85016, USA",
    "latitude":33.510668,
    "longitude":-112.029752
  },
  {
    "title":"Authorized Installer",
    "address":"Lubbock, TX 79404, USA",
    "latitude":33.508728,
    "longitude":-101.809358
  },
  {
    "title":"Authorized Installer",
    "address":"Phoenix, AZ 85014, USA",
    "latitude":33.508332,
    "longitude":-112.056579
  },
  {
    "title":"Authorized Installer",
    "address":"Phoenix, AZ 85014, USA",
    "latitude":33.508332,
    "longitude":-112.056579
  },
  {
    "title":"Authorized Installer",
    "address":"Temecula, CA 92593, USA",
    "latitude":33.507504,
    "longitude":-117.121742
  },
  {
    "title":"Authorized Installer",
    "address":"Birmingham, AL 35233, USA",
    "latitude":33.506556,
    "longitude":-86.804459
  },
  {
    "title":"Authorized Installer",
    "address":"Lubbock, TX 79424, USA",
    "latitude":33.47561,
    "longitude":-101.923396
  },
  {
    "title":"Authorized Installer",
    "address":"Phoenix, AZ 85008, USA",
    "latitude":33.466041,
    "longitude":-112.011867
  },
  {
    "title":"Authorized Installer",
    "address":"Phoenix, AZ 85004, USA",
    "latitude":33.452829,
    "longitude":-112.068503
  },
  {
    "title":"Authorized Installer",
    "address":"Phoenix, AZ 85009, USA",
    "latitude":33.443804,
    "longitude":-112.131099
  },
  {
    "title":"Authorized Installer",
    "address":"Birmingham, AL 35216, USA",
    "latitude":33.430655,
    "longitude":-86.791901
  },
  {
    "title":"Authorized Installer",
    "address":"Bessemer, AL 35020, USA",
    "latitude":33.389869,
    "longitude":-86.952395
  },
  {
    "title":"Authorized Installer",
    "address":"Roswell, NM 88203, USA",
    "latitude":33.266225,
    "longitude":-104.007235
  },
  {
    "title":"Authorized Installer",
    "address":"Denton, TX 76201, USA",
    "latitude":33.216723,
    "longitude":-97.141322
  },
  {
    "title":"Authorized Installer",
    "address":"Denton, TX 76205, USA",
    "latitude":33.183796,
    "longitude":-97.130554
  },
  {
    "title":"Authorized Installer",
    "address":"McKinney, TX 75069, USA",
    "latitude":33.163284,
    "longitude":-96.589017
  },
  {
    "title":"Authorized Installer",
    "address":"Tuscaloosa, AL 35405, USA",
    "latitude":33.122599,
    "longitude":-87.559361
  },
  {
    "title":"Authorized Installer",
    "address":"Allen, TX 75002, USA",
    "latitude":33.104463,
    "longitude":-96.642433
  },
  {
    "title":"Authorized Installer",
    "address":"Milledgeville, GA 31061, USA",
    "latitude":33.097556,
    "longitude":-83.229186
  },
  {
    "title":"Authorized Installer",
    "address":"Carlsbad, CA 92009, USA",
    "latitude":33.095442,
    "longitude":-117.249975
  },
  {
    "title":"Authorized Installer",
    "address":"Plano, TX 75025, USA",
    "latitude":33.086938,
    "longitude":-96.760106
  },
  {
    "title":"Authorized Installer",
    "address":"Escondido, CA 92029, USA",
    "latitude":33.08526,
    "longitude":-117.13824
  },
  {
    "title":"Authorized Installer",
    "address":"Plano, TX 75094, USA",
    "latitude":33.027733,
    "longitude":-96.610378
  },
  {
    "title":"Authorized Installer",
    "address":"Wylie, TX 75098, USA",
    "latitude":33.021573,
    "longitude":-96.514309
  },
  {
    "title":"Authorized Installer",
    "address":"Addison, TX 75001, USA",
    "latitude":32.965478,
    "longitude":-96.82974
  },
  {
    "title":"Authorized Installer",
    "address":"Coppell, TX 75019, USA",
    "latitude":32.961876,
    "longitude":-96.996092
  },
  {
    "title":"Authorized Installer",
    "address":"Grapevine, TX 76051, USA",
    "latitude":32.946427,
    "longitude":-97.071357
  },
  {
    "title":"Authorized Installer",
    "address":"San Diego, CA 92126, USA",
    "latitude":32.918476,
    "longitude":-117.13824
  },
  {
    "title":"Authorized Installer",
    "address":"Dallas, TX 75230, USA",
    "latitude":32.900512,
    "longitude":-96.786879
  },
  {
    "title":"Authorized Installer",
    "address":"Dallas, TX 75229, USA",
    "latitude":32.895828,
    "longitude":-96.87263
  },
  {
    "title":"Authorized Installer",
    "address":"Dallas, TX 75229, USA",
    "latitude":32.895828,
    "longitude":-96.87263
  },
  {
    "title":"Authorized Installer",
    "address":"Dallas, TX 75229, USA",
    "latitude":32.895828,
    "longitude":-96.87263
  },
  {
    "title":"Authorized Installer",
    "address":"North Charleston, SC 29405, USA",
    "latitude":32.866955,
    "longitude":-79.975221
  },
  {
    "title":"Authorized Installer",
    "address":"Fort Worth, TX 76148, USA",
    "latitude":32.86335,
    "longitude":-97.249104
  },
  {
    "title":"Authorized Installer",
    "address":"North Richland Hills, TX 76180, USA",
    "latitude":32.836239,
    "longitude":-97.232925
  },
  {
    "title":"Authorized Installer",
    "address":"Fort Worth, TX 76155, USA",
    "latitude":32.830158,
    "longitude":-97.044467
  },
  {
    "title":"Authorized Installer",
    "address":"San Diego, CA 92111, USA",
    "latitude":32.825643,
    "longitude":-117.155887
  },
  {
    "title":"Authorized Installer",
    "address":"Haltom City, TX 76117, USA",
    "latitude":32.811293,
    "longitude":-97.276076
  },
  {
    "title":"Authorized Installer",
    "address":"Dallas, TX 75207, USA",
    "latitude":32.789159,
    "longitude":-96.821702
  },
  {
    "title":"Authorized Installer",
    "address":"Fort Worth, TX 76111, USA",
    "latitude":32.781662,
    "longitude":-97.303059
  },
  {
    "title":"Authorized Installer",
    "address":"Grand Prairie, TX 75050, USA",
    "latitude":32.781145,
    "longitude":-97.017588
  },
  {
    "title":"Authorized Installer",
    "address":"Fort Worth, TX 76114, USA",
    "latitude":32.775951,
    "longitude":-97.400287
  },
  {
    "title":"Authorized Installer",
    "address":"Forney, TX 75126, USA",
    "latitude":32.754348,
    "longitude":-96.471658
  },
  {
    "title":"Authorized Installer",
    "address":"Fort Worth, TX 76121, USA",
    "latitude":32.731173,
    "longitude":-97.450843
  },
  {
    "title":"Authorized Installer",
    "address":"Arlington, TX 76010, USA",
    "latitude":32.72727,
    "longitude":-97.076736
  },
  {
    "title":"Authorized Installer",
    "address":"Arlington, TX 76013, USA",
    "latitude":32.722992,
    "longitude":-97.152093
  },
  {
    "title":"Authorized Installer",
    "address":"Arlington, TX 76013, USA",
    "latitude":32.722992,
    "longitude":-97.152093
  },
  {
    "title":"Authorized Installer",
    "address":"Macon, GA 31216, USA",
    "latitude":32.71804,
    "longitude":-83.698657
  },
  {
    "title":"Authorized Installer",
    "address":"Arlington, TX 76015, USA",
    "latitude":32.69051,
    "longitude":-97.130554
  },
  {
    "title":"Authorized Installer",
    "address":"Arlington, TX 76015, USA",
    "latitude":32.69051,
    "longitude":-97.130554
  },
  {
    "title":"Authorized Installer",
    "address":"Fort Worth, TX 76132, USA",
    "latitude":32.662367,
    "longitude":-97.421912
  },
  {
    "title":"Authorized Installer",
    "address":"Weatherford, TX 76087, USA",
    "latitude":32.609548,
    "longitude":-97.828637
  },
  {
    "title":"Authorized Installer",
    "address":"San Diego, CA 92154, USA",
    "latitude":32.59672,
    "longitude":-116.902812
  },
  {
    "title":"Authorized Installer",
    "address":"Mansfield, TX 76063, USA",
    "latitude":32.563183,
    "longitude":-97.141693
  },
  {
    "title":"Authorized Installer",
    "address":"Columbus, GA 31904, USA",
    "latitude":32.562172,
    "longitude":-84.992155
  },
  {
    "title":"Authorized Installer",
    "address":"Longview, TX 75601, USA",
    "latitude":32.511106,
    "longitude":-94.722579
  },
  {
    "title":"Authorized Installer",
    "address":"Abilene, TX 79605, USA",
    "latitude":32.438923,
    "longitude":-99.779023
  },
  {
    "title":"Authorized Installer",
    "address":"Abilene, TX 79605, USA",
    "latitude":32.438923,
    "longitude":-99.779023
  },
  {
    "title":"Authorized Installer",
    "address":"Shreveport, LA 71136, USA",
    "latitude":32.423079,
    "longitude":-93.765507
  },
  {
    "title":"Authorized Installer",
    "address":"Montgomery, AL 36109, USA",
    "latitude":32.385532,
    "longitude":-86.251413
  },
  {
    "title":"Authorized Installer",
    "address":"Tyler, TX 75702, USA",
    "latitude":32.368714,
    "longitude":-95.320707
  },
  {
    "title":"Authorized Installer",
    "address":"Tyler, TX 75702, USA",
    "latitude":32.368714,
    "longitude":-95.320707
  },
  {
    "title":"Authorized Installer",
    "address":"Meridian, MS 39307, USA",
    "latitude":32.327814,
    "longitude":-88.807089
  },
  {
    "title":"Authorized Installer",
    "address":"Tyler, TX 75701, USA",
    "latitude":32.324386,
    "longitude":-95.299796
  },
  {
    "title":"Authorized Installer",
    "address":"Flowood, MS 39232, USA",
    "latitude":32.322048,
    "longitude":-90.102718
  },
  {
    "title":"Authorized Installer",
    "address":"Meridian, MS 39301, USA",
    "latitude":32.302971,
    "longitude":-88.595175
  },
  {
    "title":"Authorized Installer",
    "address":"Rincon, GA 31326, USA",
    "latitude":32.300015,
    "longitude":-81.229853
  },
  {
    "title":"Authorized Installer",
    "address":"Jackson, MS 39204, USA",
    "latitude":32.282195,
    "longitude":-90.229156
  },
  {
    "title":"Authorized Installer",
    "address":"Tucson, AZ 85719, USA",
    "latitude":32.254652,
    "longitude":-110.944703
  },
  {
    "title":"Authorized Installer",
    "address":"Bluffton, SC 29910, USA",
    "latitude":32.229904,
    "longitude":-80.87652
  },
  {
    "title":"Authorized Installer",
    "address":"Bluffton, SC 29910, USA",
    "latitude":32.229904,
    "longitude":-80.87652
  },
  {
    "title":"Authorized Installer",
    "address":"Tucson, AZ 85748, USA",
    "latitude":32.206425,
    "longitude":-110.688407
  },
  {
    "title":"Authorized Installer",
    "address":"Savannah, GA 31405, USA",
    "latitude":32.037114,
    "longitude":-81.17475
  },
  {
    "title":"Authorized Installer",
    "address":"Corsicana, TX 75110, USA",
    "latitude":32.030204,
    "longitude":-96.514309
  },
  {
    "title":"Authorized Installer",
    "address":"Savannah, GA 31406, USA",
    "latitude":31.985811,
    "longitude":-81.086503
  },
  {
    "title":"Authorized Installer",
    "address":"Odessa, TX 79761, USA",
    "latitude":31.852861,
    "longitude":-102.357842
  },
  {
    "title":"Authorized Installer",
    "address":"El Paso, TX 79925, USA",
    "latitude":31.795051,
    "longitude":-106.358153
  },
  {
    "title":"Authorized Installer",
    "address":"Leesburg, GA 31763, USA",
    "latitude":31.722005,
    "longitude":-84.143514
  },
  {
    "title":"Authorized Installer",
    "address":"Brookhaven, MS 39601, USA",
    "latitude":31.581073,
    "longitude":-90.63937
  },
  {
    "title":"Authorized Installer",
    "address":"Ellisville, MS 39437, USA",
    "latitude":31.580226,
    "longitude":-89.208677
  },
  {
    "title":"Authorized Installer",
    "address":"Natchez, MS 39120, USA",
    "latitude":31.575801,
    "longitude":-91.327642
  },
  {
    "title":"Authorized Installer",
    "address":"Alma, GA 31510, USA",
    "latitude":31.541209,
    "longitude":-82.43194
  },
  {
    "title":"Authorized Installer",
    "address":"Albany, GA 31705, USA",
    "latitude":31.512478,
    "longitude":-84.037889
  },
  {
    "title":"Authorized Installer",
    "address":"Albany, GA 31705, USA",
    "latitude":31.512478,
    "longitude":-84.037889
  },
  {
    "title":"Authorized Installer",
    "address":"San Angelo, TX 76903, USA",
    "latitude":31.484681,
    "longitude":-100.450896
  },
  {
    "title":"Authorized Installer",
    "address":"Hewitt, TX 76643, USA",
    "latitude":31.454827,
    "longitude":-97.195191
  },
  {
    "title":"Authorized Installer",
    "address":"Douglas, GA 31535, USA",
    "latitude":31.448841,
    "longitude":-82.799419
  },
  {
    "title":"Authorized Installer",
    "address":"Vidalia, LA 71373, USA",
    "latitude":31.321143,
    "longitude":-91.617801
  },
  {
    "title":"Authorized Installer",
    "address":"Dothan, AL 36303, USA",
    "latitude":31.248372,
    "longitude":-85.375625
  },
  {
    "title":"Authorized Installer",
    "address":"Dothan, AL 36301, USA",
    "latitude":31.134841,
    "longitude":-85.396277
  },
  {
    "title":"Authorized Installer",
    "address":"Adel, GA 31620, USA",
    "latitude":31.118905,
    "longitude":-83.443012
  },
  {
    "title":"Authorized Installer",
    "address":"St. Marys, GA 31558, USA",
    "latitude":30.777092,
    "longitude":-81.493799
  },
  {
    "title":"Authorized Installer",
    "address":"Boston, GA 31626, USA",
    "latitude":30.772072,
    "longitude":-83.826088
  },
  {
    "title":"Authorized Installer",
    "address":"Bryan, TX 77801, USA",
    "latitude":30.642351,
    "longitude":-96.370478
  },
  {
    "title":"Authorized Installer",
    "address":"Daphne, AL 36526, USA",
    "latitude":30.625712,
    "longitude":-87.874615
  },
  {
    "title":"Authorized Installer",
    "address":"Daphne, AL 36526, USA",
    "latitude":30.625712,
    "longitude":-87.874615
  },
  {
    "title":"Authorized Installer",
    "address":"Daphne, AL 36526, USA",
    "latitude":30.625712,
    "longitude":-87.874615
  },
  {
    "title":"Authorized Installer",
    "address":"Daphne, AL 36526, USA",
    "latitude":30.625712,
    "longitude":-87.874615
  },
  {
    "title":"Authorized Installer",
    "address":"Mobile, AL 36695, USA",
    "latitude":30.620114,
    "longitude":-88.275314
  },
  {
    "title":"Authorized Installer",
    "address":"Round Rock, TX 78664, USA",
    "latitude":30.504138,
    "longitude":-97.660236
  },
  {
    "title":"Authorized Installer",
    "address":"Fort Walton Beach, FL 32547, USA",
    "latitude":30.496065,
    "longitude":-86.630876
  },
  {
    "title":"Authorized Installer",
    "address":"Baton Rouge, LA 70815, USA",
    "latitude":30.460253,
    "longitude":-91.063402
  },
  {
    "title":"Authorized Installer",
    "address":"Pensacola, FL 32503, USA",
    "latitude":30.458051,
    "longitude":-87.217039
  },
  {
    "title":"Authorized Installer",
    "address":"Gulfport, MS 39503, USA",
    "latitude":30.456061,
    "longitude":-89.151548
  },
  {
    "title":"Authorized Installer",
    "address":"Tallahassee, FL 32301, USA",
    "latitude":30.430506,
    "longitude":-84.254219
  },
  {
    "title":"Authorized Installer",
    "address":"Baton Rouge, LA 70816, USA",
    "latitude":30.425997,
    "longitude":-91.025107
  },
  {
    "title":"Authorized Installer",
    "address":"Baton Rouge, LA 70816, USA",
    "latitude":30.425997,
    "longitude":-91.025107
  },
  {
    "title":"Authorized Installer",
    "address":"Austin, TX 78759, USA",
    "latitude":30.401356,
    "longitude":-97.752535
  },
  {
    "title":"Authorized Installer",
    "address":"Gulfport, MS 39501, USA",
    "latitude":30.398132,
    "longitude":-89.103878
  },
  {
    "title":"Authorized Installer",
    "address":"Gulfport, MS 39507, USA",
    "latitude":30.391862,
    "longitude":-89.03227
  },
  {
    "title":"Authorized Installer",
    "address":"Baton Rouge, LA 70809, USA",
    "latitude":30.391121,
    "longitude":-91.063402
  },
  {
    "title":"Authorized Installer",
    "address":"Baton Rouge, LA 70809, USA",
    "latitude":30.391121,
    "longitude":-91.063402
  },
  {
    "title":"Authorized Installer",
    "address":"Austin, TX 78758, USA",
    "latitude":30.387069,
    "longitude":-97.703656
  },
  {
    "title":"Authorized Installer",
    "address":"Long Beach, MS 39560, USA",
    "latitude":30.375579,
    "longitude":-89.180122
  },
  {
    "title":"Authorized Installer",
    "address":"Mandeville, LA 70448, USA",
    "latitude":30.355073,
    "longitude":-90.046656
  },
  {
    "title":"Authorized Installer",
    "address":"Pascagoula, MS 39567, USA",
    "latitude":30.352968,
    "longitude":-88.561363
  },
  {
    "title":"Authorized Installer",
    "address":"Jacksonville, FL 32206, USA",
    "latitude":30.346791,
    "longitude":-81.641866
  },
  {
    "title":"Authorized Installer",
    "address":"Carencro, LA 70520, USA",
    "latitude":30.339288,
    "longitude":-92.037116
  },
  {
    "title":"Authorized Installer",
    "address":"Conroe, TX 77304, USA",
    "latitude":30.331525,
    "longitude":-95.509247
  },
  {
    "title":"Authorized Installer",
    "address":"Jacksonville, FL 32216, USA",
    "latitude":30.290691,
    "longitude":-81.570611
  },
  {
    "title":"Authorized Installer",
    "address":"Lake City, FL 32055, USA",
    "latitude":30.273073,
    "longitude":-82.605118
  },
  {
    "title":"Authorized Installer",
    "address":"Lafayette, LA 70507, USA",
    "latitude":30.270113,
    "longitude":-92.037116
  },
  {
    "title":"Authorized Installer",
    "address":"Scott, LA 70583, USA",
    "latitude":30.268875,
    "longitude":-92.115569
  },
  {
    "title":"Authorized Installer",
    "address":"Jacksonville, FL 32224, USA",
    "latitude":30.260661,
    "longitude":-81.460856
  },
  {
    "title":"Authorized Installer",
    "address":"Slidell, LA 70458, USA",
    "latitude":30.239614,
    "longitude":-89.822405
  },
  {
    "title":"Authorized Installer",
    "address":"Lake Charles, LA 70601, USA",
    "latitude":30.229353,
    "longitude":-93.213123
  },
  {
    "title":"Authorized Installer",
    "address":"Slidell, LA 70461, USA",
    "latitude":30.227809,
    "longitude":-89.681621
  },
  {
    "title":"Authorized Installer",
    "address":"Gonzales, LA 70737, USA",
    "latitude":30.224947,
    "longitude":-90.92475
  },
  {
    "title":"Authorized Installer",
    "address":"Crowley, LA 70526, USA",
    "latitude":30.20702,
    "longitude":-92.36162
  },
  {
    "title":"Authorized Installer",
    "address":"Panama City, FL 32405, USA",
    "latitude":30.191716,
    "longitude":-85.674308
  },
  {
    "title":"Authorized Installer",
    "address":"Vidor, TX 77662, USA",
    "latitude":30.167193,
    "longitude":-94.008256
  },
  {
    "title":"Authorized Installer",
    "address":"Panama City, FL 32401, USA",
    "latitude":30.162401,
    "longitude":-85.6589
  },
  {
    "title":"Authorized Installer",
    "address":"Lafayette, LA 70508, USA",
    "latitude":30.154741,
    "longitude":-92.037116
  },
  {
    "title":"Authorized Installer",
    "address":"Beaumont, TX 77708, USA",
    "latitude":30.151554,
    "longitude":-94.141141
  },
  {
    "title":"Authorized Installer",
    "address":"Lake Charles, LA 70605, USA",
    "latitude":30.141252,
    "longitude":-93.278482
  },
  {
    "title":"Authorized Installer",
    "address":"Spring, TX 77386, USA",
    "latitude":30.118564,
    "longitude":-95.373018
  },
  {
    "title":"Authorized Installer",
    "address":"Lake City, FL 32025, USA",
    "latitude":30.111156,
    "longitude":-82.583495
  },
  {
    "title":"Authorized Installer",
    "address":"Tomball, TX 77375, USA",
    "latitude":30.109835,
    "longitude":-95.582733
  },
  {
    "title":"Authorized Installer",
    "address":"Kenner, LA 70065, USA",
    "latitude":30.089333,
    "longitude":-90.280787
  },
  {
    "title":"Authorized Installer",
    "address":"Lake Charles, LA 70607, USA",
    "latitude":30.050909,
    "longitude":-93.198053
  },
  {
    "title":"Authorized Installer",
    "address":"Metairie, LA 70002, USA",
    "latitude":30.014416,
    "longitude":-90.163544
  },
  {
    "title":"Authorized Installer",
    "address":"New Iberia, LA 70560, USA",
    "latitude":29.984226,
    "longitude":-91.851343
  },
  {
    "title":"Authorized Installer",
    "address":"Metairie, LA 70001, USA",
    "latitude":29.979734,
    "longitude":-90.163544
  },
  {
    "title":"Authorized Installer",
    "address":"Gretna, LA 70053, USA",
    "latitude":29.910434,
    "longitude":-90.051325
  },
  {
    "title":"Authorized Installer",
    "address":"Houston, TX 77037, USA",
    "latitude":29.892755,
    "longitude":-95.399191
  },
  {
    "title":"Authorized Installer",
    "address":"Erath, LA 70533, USA",
    "latitude":29.888857,
    "longitude":-92.046915
  },
  {
    "title":"Authorized Installer",
    "address":"Harvey, LA 70058, USA",
    "latitude":29.869933,
    "longitude":-90.065334
  },
  {
    "title":"Authorized Installer",
    "address":"Katy, TX 77493, USA",
    "latitude":29.868456,
    "longitude":-95.835384
  },
  {
    "title":"Authorized Installer",
    "address":"Alachua, FL 32615, USA",
    "latitude":29.830346,
    "longitude":-82.496933
  },
  {
    "title":"Authorized Installer",
    "address":"Marrero, LA 70072, USA",
    "latitude":29.812015,
    "longitude":-90.13078
  },
  {
    "title":"Authorized Installer",
    "address":"Gainesville, FL 32653, USA",
    "latitude":29.742956,
    "longitude":-82.377733
  },
  {
    "title":"Authorized Installer",
    "address":"Houston, TX 77083, USA",
    "latitude":29.697594,
    "longitude":-95.651053
  },
  {
    "title":"Authorized Installer",
    "address":"Schriever, LA 70395, USA",
    "latitude":29.670392,
    "longitude":-90.848452
  },
  {
    "title":"Authorized Installer",
    "address":"Missouri City, TX 77489, USA",
    "latitude":29.593801,
    "longitude":-95.509247
  },
  {
    "title":"Authorized Installer",
    "address":"San Antonio, TX 78248, USA",
    "latitude":29.592901,
    "longitude":-98.525416
  },
  {
    "title":"Authorized Installer",
    "address":"Seabrook, TX 77586, USA",
    "latitude":29.583732,
    "longitude":-95.033851
  },
  {
    "title":"Authorized Installer",
    "address":"Houma, LA 70360, USA",
    "latitude":29.5779,
    "longitude":-90.810357
  },
  {
    "title":"Authorized Installer",
    "address":"San Antonio, TX 78233, USA",
    "latitude":29.560052,
    "longitude":-98.363613
  },
  {
    "title":"Authorized Installer",
    "address":"Houma, LA 70363, USA",
    "latitude":29.532157,
    "longitude":-90.696285
  },
  {
    "title":"Authorized Installer",
    "address":"San Antonio, TX 78238, USA",
    "latitude":29.468701,
    "longitude":-98.621565
  },
  {
    "title":"Authorized Installer",
    "address":"Dickinson, TX 77539, USA",
    "latitude":29.450875,
    "longitude":-95.028649
  },
  {
    "title":"Authorized Installer",
    "address":"Converse, TX 78109, USA",
    "latitude":29.447631,
    "longitude":-98.319795
  },
  {
    "title":"Authorized Installer",
    "address":"Ocala, FL 34471, USA",
    "latitude":29.157192,
    "longitude":-82.122398
  },
  {
    "title":"Authorized Installer",
    "address":"Pleasanton, TX 78064, USA",
    "latitude":28.920706,
    "longitude":-98.440357
  },
  {
    "title":"Authorized Installer",
    "address":"Homosassa, FL 34448, USA",
    "latitude":28.780991,
    "longitude":-82.615046
  },
  {
    "title":"Authorized Installer",
    "address":"Longwood, FL 32750, USA",
    "latitude":28.71085,
    "longitude":-81.350942
  },
  {
    "title":"Authorized Installer",
    "address":"Longwood, FL 32750, USA",
    "latitude":28.71085,
    "longitude":-81.350942
  },
  {
    "title":"Authorized Installer",
    "address":"Brooksville, FL 34613, USA",
    "latitude":28.576038,
    "longitude":-82.594307
  },
  {
    "title":"Authorized Installer",
    "address":"Orlando, FL 32809, USA",
    "latitude":28.458886,
    "longitude":-81.394926
  },
  {
    "title":"Authorized Installer",
    "address":"Hudson, FL 34667, USA",
    "latitude":28.393764,
    "longitude":-82.659147
  },
  {
    "title":"Authorized Installer",
    "address":"Lutz, FL 33559, USA",
    "latitude":28.153777,
    "longitude":-82.415683
  },
  {
    "title":"Authorized Installer",
    "address":"St. Petersburg, FL 33702, USA",
    "latitude":27.851204,
    "longitude":-82.632138
  },
  {
    "title":"Authorized Installer",
    "address":"St. Petersburg, FL 33709, USA",
    "latitude":27.821958,
    "longitude":-82.740109
  },
  {
    "title":"Authorized Installer",
    "address":"Corpus Christi, TX 78408, USA",
    "latitude":27.797463,
    "longitude":-97.446249
  },
  {
    "title":"Authorized Installer",
    "address":"Alice, TX 78332, USA",
    "latitude":27.735035,
    "longitude":-98.090174
  },
  {
    "title":"Authorized Installer",
    "address":"Corpus Christi, TX 78412, USA",
    "latitude":27.700785,
    "longitude":-97.346254
  },
  {
    "title":"Authorized Installer",
    "address":"Corpus Christi, TX 78415, USA",
    "latitude":27.651555,
    "longitude":-97.503067
  },
  {
    "title":"Authorized Installer",
    "address":"Vero Beach, FL 32960, USA",
    "latitude":27.644508,
    "longitude":-80.404831
  },
  {
    "title":"Authorized Installer",
    "address":"Sarasota, FL 34232, USA",
    "latitude":27.334614,
    "longitude":-82.464445
  },
  {
    "title":"Authorized Installer",
    "address":"Palm City, FL 34990, USA",
    "latitude":27.145803,
    "longitude":-80.343591
  },
  {
    "title":"Authorized Installer",
    "address":"Punta Gorda, FL 33980, USA",
    "latitude":26.984537,
    "longitude":-82.05161
  },
  {
    "title":"Authorized Installer",
    "address":"West Palm Beach, FL 33403, USA",
    "latitude":26.807032,
    "longitude":-80.081429
  },
  {
    "title":"Authorized Installer",
    "address":"West Palm Beach, FL 33411, USA",
    "latitude":26.704414,
    "longitude":-80.198665
  },
  {
    "title":"Authorized Installer",
    "address":"West Palm Beach, FL 33405, USA",
    "latitude":26.6655,
    "longitude":-80.05908
  },
  {
    "title":"Authorized Installer",
    "address":"Fort Myers, FL 33905, USA",
    "latitude":26.663791,
    "longitude":-81.818042
  },
  {
    "title":"Authorized Installer",
    "address":"Fort Myers, FL 33912, USA",
    "latitude":26.52735,
    "longitude":-81.833366
  },
  {
    "title":"Authorized Installer",
    "address":"Fort Myers, FL 33912, USA",
    "latitude":26.52735,
    "longitude":-81.833366
  },
  {
    "title":"Authorized Installer",
    "address":"Bonita Springs, FL 34134, USA",
    "latitude":26.339851,
    "longitude":-81.833366
  },
  {
    "title":"Authorized Installer",
    "address":"McAllen, TX 78501, USA",
    "latitude":26.218844,
    "longitude":-98.232235
  },
  {
    "title":"Authorized Installer",
    "address":"McAllen, TX 78501, USA",
    "latitude":26.218844,
    "longitude":-98.232235
  },
  {
    "title":"Authorized Installer",
    "address":"Fort Lauderdale, FL 33309, USA",
    "latitude":26.188923,
    "longitude":-80.176347
  },
  {
    "title":"Authorized Installer",
    "address":"Pharr, TX 78577, USA",
    "latitude":26.150965,
    "longitude":-98.188495
  },
  {
    "title":"Authorized Installer",
    "address":"Fort Lauderdale, FL 33311, USA",
    "latitude":26.142147,
    "longitude":-80.176347
  },
  {
    "title":"Authorized Installer",
    "address":"Hialeah, FL 33014, USA",
    "latitude":25.910959,
    "longitude":-80.304597
  },
  {
    "title":"Authorized Installer",
    "address":"Miami, FL 33166, USA",
    "latitude":25.823504,
    "longitude":-80.310168
  },
  {
    "title":"Authorized Installer",
    "address":"Miami, FL 33142, USA",
    "latitude":25.812779,
    "longitude":-80.237708
  },
  {
    "title":"Authorized Installer",
    "address":"Miami, FL 33174, USA",
    "latitude":25.761679,
    "longitude":-80.34916
  },
  {
    "title":"Authorized Installer",
    "address":"Miami, FL 33155, USA",
    "latitude":25.736019,
    "longitude":-80.31574
  },
  {
    "title":"Authorized Installer",
    "address":"Miami, FL 33157, USA",
    "latitude":25.608592,
    "longitude":-80.338021
  },
  {
    "title":"Authorized Installer",
    "address":"Kailua, HI 96734, USA",
    "latitude":21.393028,
    "longitude":-157.749676
  },
  {
    "title":"Authorized Installer",
    "address":"Billerica, MA 01821, USA",
    "latitude":42.546531,
    "longitude":-71.251783
  },
  {
    "title":"Authorized Installer",
    "address":"Edison, NJ 08817, USA",
    "latitude":40.505476,
    "longitude":-74.393934
  },
  {
    "title":"Authorized Installer",
    "address":"Middletown, CT 06457, USA",
    "latitude":41.546032,
    "longitude":-72.650596
  },
  {
    "title":"Authorized Installer",
    "address":"Lakewood, NJ 08701, USA",
    "latitude":40.08074,
    "longitude":-74.206193
  },
  {
    "title":"Authorized Installer",
    "address":"Auburn, ME 04210, USA",
    "latitude":44.111461,
    "longitude":-70.255658
  },
  {
    "title":"Authorized Installer",
    "address":"Oakland, ME 04963, USA",
    "latitude":44.584361,
    "longitude":-69.912906
  },
  {
    "title":"Authorized Installer",
    "address":"Portsmouth, NH 03801, USA",
    "latitude":43.087491,
    "longitude":-70.835779
  },
  {
    "title":"Authorized Installer",
    "address":"Biddeford, ME 04005, USA",
    "latitude":43.485727,
    "longitude":-70.498321
  },
  {
    "title":"Authorized Installer",
    "address":"Oakhurst, NJ 07755, USA",
    "latitude":40.259842,
    "longitude":-74.024137
  },
  {
    "title":"Authorized Installer",
    "address":"Hackensack, NJ 07601, USA",
    "latitude":40.887627,
    "longitude":-74.047638
  },
  {
    "title":"Authorized Installer",
    "address":"Gorham, ME 04038, USA",
    "latitude":43.69207,
    "longitude":-70.446258
  },
  {
    "title":"Authorized Installer",
    "address":"Bucksport, ME 04416, USA",
    "latitude":44.633598,
    "longitude":-68.743119
  },
  {
    "title":"Authorized Installer",
    "address":"Kendall Park, NJ 08824, USA",
    "latitude":40.422769,
    "longitude":-74.552187
  },
  {
    "title":"Authorized Installer",
    "address":"Orange, CT 06477, USA",
    "latitude":41.273124,
    "longitude":-73.028721
  },
  {
    "title":"Authorized Installer",
    "address":"Greenwich, CT 06830, USA",
    "latitude":41.067017,
    "longitude":-73.618298
  },
  {
    "title":"Authorized Installer",
    "address":"Pawtucket, RI 02861, USA",
    "latitude":41.881718,
    "longitude":-71.352747
  },
  {
    "title":"Authorized Installer",
    "address":"Saco, ME 04072, USA",
    "latitude":43.54178,
    "longitude":-70.445035
  },
  {
    "title":"Authorized Installer",
    "address":"Mantua Township, NJ 08051, USA",
    "latitude":39.785741,
    "longitude":-75.183722
  },
  {
    "title":"Authorized Installer",
    "address":"Kingston, MA 02364, USA",
    "latitude":41.985179,
    "longitude":-70.75253
  },
  {
    "title":"Authorized Installer",
    "address":"West Bridgewater, MA 02379, USA",
    "latitude":42.030267,
    "longitude":-71.014118
  },
  {
    "title":"Authorized Installer",
    "address":"Irving, TX 75038, USA",
    "latitude":32.872152,
    "longitude":-96.996092
  },
  {
    "title":"Authorized Installer",
    "address":"Westerly, RI 02891, USA",
    "latitude":41.352166,
    "longitude":-71.797833
  },
  {
    "title":"Authorized Installer",
    "address":"Manchester, CT 06040, USA",
    "latitude":41.759927,
    "longitude":-72.532314
  },
  {
    "title":"Authorized Installer",
    "address":"Succasunna, NJ 07876, USA",
    "latitude":40.853709,
    "longitude":-74.657609
  },
  {
    "title":"Authorized Installer",
    "address":"Buena, NJ 08310, USA",
    "latitude":39.52957,
    "longitude":-74.885799
  },
  {
    "title":"Authorized Installer",
    "address":"Avon-by-the-Sea, NJ 07717, USA",
    "latitude":40.191299,
    "longitude":-74.015323
  },
  {
    "title":"Authorized Installer",
    "address":"West Springfield, MA 01089, USA",
    "latitude":42.124993,
    "longitude":-72.650596
  },
  {
    "title":"Authorized Installer",
    "address":"Enfield, CT 06082, USA",
    "latitude":42.002718,
    "longitude":-72.544145
  },
  {
    "title":"Authorized Installer",
    "address":"Keyport, NJ 07735, USA",
    "latitude":40.435954,
    "longitude":-74.197388
  },
  {
    "title":"Authorized Installer",
    "address":"East Hartford, CT 06108, USA",
    "latitude":41.778589,
    "longitude":-72.62103
  },
  {
    "title":"Authorized Installer",
    "address":"Bogota, NJ 07603, USA",
    "latitude":40.877322,
    "longitude":-74.027075
  },
  {
    "title":"Authorized Installer",
    "address":"Caguas, 00725, Puerto Rico",
    "latitude":18.294378,
    "longitude":-66.034458
  },
  {
    "title":"Authorized Installer",
    "address":"Ridgefield, CT 06877, USA",
    "latitude":41.292898,
    "longitude":-73.488729
  },
  {
    "title":"Authorized Installer",
    "address":"Cherry Hill, NJ 08003, USA",
    "latitude":39.881709,
    "longitude":-74.955948
  },
  {
    "title":"Authorized Installer",
    "address":"Mays Landing, NJ 08330, USA",
    "latitude":39.482095,
    "longitude":-74.757115
  },
  {
    "title":"Authorized Installer",
    "address":"Hooksett, NH 03106, USA",
    "latitude":43.080284,
    "longitude":-71.453684
  },
  {
    "title":"Authorized Installer",
    "address":"Butler, NJ 07405, USA",
    "latitude":40.98865,
    "longitude":-74.382206
  },
  {
    "title":"Authorized Installer",
    "address":"Paterson, NJ 07505, USA",
    "latitude":40.9163,
    "longitude":-74.172438
  },
  {
    "title":"Authorized Installer",
    "address":"Hooksett, NH 03106, USA",
    "latitude":43.080284,
    "longitude":-71.453684
  },
  {
    "title":"Authorized Installer",
    "address":"Roseland, NJ 07068, USA",
    "latitude":40.826793,
    "longitude":-74.317688
  },
  {
    "title":"Authorized Installer",
    "address":"Ashland, MA 01721, USA",
    "latitude":42.259291,
    "longitude":-71.465556
  },
  {
    "title":"Authorized Installer",
    "address":"Vineland, NJ 08360, USA",
    "latitude":39.478783,
    "longitude":-75.03775
  },
  {
    "title":"Authorized Installer",
    "address":"Williston, VT 05495, USA",
    "latitude":44.431566,
    "longitude":-73.105919
  },
  {
    "title":"Authorized Installer",
    "address":"Williston, VT 05495, USA",
    "latitude":44.431566,
    "longitude":-73.105919
  },
  {
    "title":"Authorized Installer",
    "address":"Belleville, NJ 07109, USA",
    "latitude":40.795615,
    "longitude":-74.165099
  }
]